{
"type": "FeatureCollection",
"name": "Place",
"crs": { "type": "name", "properties": { "name": "urn:ogc:def:crs:OGC:1.3:CRS84" } },
"features": [
{ "type": "Feature", "properties": { "osm_id": "171513871", "code": 1001, "fclass": "city", "population": 81400, "name": "Naxçıvan" }, "geometry": { "type": "Point", "coordinates": [ 45.4069671, 39.217497 ] } },
{ "type": "Feature", "properties": { "osm_id": "172794981", "code": 1002, "fclass": "town", "population": 13500, "name": "Culfa" }, "geometry": { "type": "Point", "coordinates": [ 45.6270343, 38.9540587 ] } },
{ "type": "Feature", "properties": { "osm_id": "183122494", "code": 1001, "fclass": "city", "population": 44100, "name": "Şəmkir" }, "geometry": { "type": "Point", "coordinates": [ 46.0246224, 40.8357964 ] } },
{ "type": "Feature", "properties": { "osm_id": "183345861", "code": 1001, "fclass": "city", "population": 335800, "name": "Gəncə" }, "geometry": { "type": "Point", "coordinates": [ 46.3597178, 40.6798083 ] } },
{ "type": "Feature", "properties": { "osm_id": "184600213", "code": 1001, "fclass": "city", "population": 14200, "name": "Tovuz" }, "geometry": { "type": "Point", "coordinates": [ 45.6159428, 40.992505 ] } },
{ "type": "Feature", "properties": { "osm_id": "184640403", "code": 1002, "fclass": "town", "population": 22000, "name": "Qazax" }, "geometry": { "type": "Point", "coordinates": [ 45.361029, 41.0911532 ] } },
{ "type": "Feature", "properties": { "osm_id": "210333762", "code": 1002, "fclass": "town", "population": 1180, "name": "Şuşa" }, "geometry": { "type": "Point", "coordinates": [ 46.7511501, 39.7632567 ] } },
{ "type": "Feature", "properties": { "osm_id": "226791840", "code": 1002, "fclass": "town", "population": 41000, "name": "Şamaxı" }, "geometry": { "type": "Point", "coordinates": [ 48.6382239, 40.6338603 ] } },
{ "type": "Feature", "properties": { "osm_id": "226938372", "code": 1002, "fclass": "town", "population": 82800, "name": "Şirvan" }, "geometry": { "type": "Point", "coordinates": [ 48.9455904, 39.9549667 ] } },
{ "type": "Feature", "properties": { "osm_id": "227052744", "code": 1001, "fclass": "city", "population": 102400, "name": "Mingəçevir" }, "geometry": { "type": "Point", "coordinates": [ 47.052389, 40.7646918 ] } },
{ "type": "Feature", "properties": { "osm_id": "227109482", "code": 1001, "fclass": "city", "population": 65800, "name": "Şəki" }, "geometry": { "type": "Point", "coordinates": [ 47.1802623, 41.2033609 ] } },
{ "type": "Feature", "properties": { "osm_id": "227127401", "code": 1001, "fclass": "city", "population": 63100, "name": "Yevlax" }, "geometry": { "type": "Point", "coordinates": [ 47.1479948, 40.6111615 ] } },
{ "type": "Feature", "properties": { "osm_id": "228290010", "code": 1002, "fclass": "town", "population": 22300, "name": "Ağsu" }, "geometry": { "type": "Point", "coordinates": [ 48.3944412, 40.5680452 ] } },
{ "type": "Feature", "properties": { "osm_id": "228300327", "code": 1002, "fclass": "town", "population": 16000, "name": "Qobustan" }, "geometry": { "type": "Point", "coordinates": [ 49.4120821, 40.0826777 ] } },
{ "type": "Feature", "properties": { "osm_id": "228307541", "code": 1002, "fclass": "town", "population": 9400, "name": "Qobustan Mərəzə" }, "geometry": { "type": "Point", "coordinates": [ 48.9275958, 40.5324087 ] } },
{ "type": "Feature", "properties": { "osm_id": "229481406", "code": 1002, "fclass": "town", "population": 18300, "name": "Ucar" }, "geometry": { "type": "Point", "coordinates": [ 47.6487809, 40.5185386 ] } },
{ "type": "Feature", "properties": { "osm_id": "229485648", "code": 1002, "fclass": "town", "population": 19300, "name": "Kürdəmir" }, "geometry": { "type": "Point", "coordinates": [ 48.1488951, 40.3455247 ] } },
{ "type": "Feature", "properties": { "osm_id": "229488461", "code": 1002, "fclass": "town", "population": 37300, "name": "Göyçay" }, "geometry": { "type": "Point", "coordinates": [ 47.7412208, 40.6494415 ] } },
{ "type": "Feature", "properties": { "osm_id": "229492717", "code": 1002, "fclass": "town", "population": 27400, "name": "Hacıqabul" }, "geometry": { "type": "Point", "coordinates": [ 48.9350797, 40.0286557 ] } },
{ "type": "Feature", "properties": { "osm_id": "229499571", "code": 1002, "fclass": "town", "population": 11700, "name": "Gədəbəy" }, "geometry": { "type": "Point", "coordinates": [ 45.8103471, 40.5747098 ] } },
{ "type": "Feature", "properties": { "osm_id": "229503490", "code": 1002, "fclass": "town", "population": 18200, "name": "Göygöl" }, "geometry": { "type": "Point", "coordinates": [ 46.3169375, 40.5837549 ] } },
{ "type": "Feature", "properties": { "osm_id": "229639771", "code": 1001, "fclass": "city", "population": 40300, "name": "Bərdə" }, "geometry": { "type": "Point", "coordinates": [ 47.1246287, 40.3812457 ] } },
{ "type": "Feature", "properties": { "osm_id": "229673181", "code": 1002, "fclass": "town", "population": 41400, "name": "Ağcabədi" }, "geometry": { "type": "Point", "coordinates": [ 47.4607462, 40.050544 ] } },
{ "type": "Feature", "properties": { "osm_id": "229679563", "code": 1002, "fclass": "town", "population": 11320, "name": "Zərdab" }, "geometry": { "type": "Point", "coordinates": [ 47.7086766, 40.2196441 ] } },
{ "type": "Feature", "properties": { "osm_id": "229697540", "code": 1001, "fclass": "city", "population": 30800, "name": "Sabirabad" }, "geometry": { "type": "Point", "coordinates": [ 48.475032, 40.008006 ] } },
{ "type": "Feature", "properties": { "osm_id": "229699967", "code": 1002, "fclass": "town", "population": 20300, "name": "Saatlı" }, "geometry": { "type": "Point", "coordinates": [ 48.3689097, 39.9376009 ] } },
{ "type": "Feature", "properties": { "osm_id": "230964856", "code": 1002, "fclass": "town", "population": 38900, "name": "Səlyan" }, "geometry": { "type": "Point", "coordinates": [ 48.9831723, 39.5990891 ] } },
{ "type": "Feature", "properties": { "osm_id": "231332430", "code": 1001, "fclass": "city", "population": 22100, "name": "Neftçala" }, "geometry": { "type": "Point", "coordinates": [ 49.248607, 39.3790532 ] } },
{ "type": "Feature", "properties": { "osm_id": "231379524", "code": 1001, "fclass": "city", "population": 23500, "name": "Biləsuvar" }, "geometry": { "type": "Point", "coordinates": [ 48.5465607, 39.4561281 ] } },
{ "type": "Feature", "properties": { "osm_id": "231392834", "code": 1004, "fclass": "hamlet", "population": 0, "name": "Şorsulu" }, "geometry": { "type": "Point", "coordinates": [ 48.8416851, 39.428712 ] } },
{ "type": "Feature", "properties": { "osm_id": "231405163", "code": 1001, "fclass": "city", "population": 47400, "name": "Cəlilabad" }, "geometry": { "type": "Point", "coordinates": [ 48.5050593, 39.2103933 ] } },
{ "type": "Feature", "properties": { "osm_id": "231412616", "code": 1003, "fclass": "village", "population": 0, "name": "Allar" }, "geometry": { "type": "Point", "coordinates": [ 48.5301322, 39.3175162 ] } },
{ "type": "Feature", "properties": { "osm_id": "231418623", "code": 1002, "fclass": "town", "population": 26700, "name": "Masallı" }, "geometry": { "type": "Point", "coordinates": [ 48.6721093, 39.0322111 ] } },
{ "type": "Feature", "properties": { "osm_id": "231493032", "code": 1003, "fclass": "village", "population": 7100, "name": "Boradigah" }, "geometry": { "type": "Point", "coordinates": [ 48.708599, 38.9299877 ] } },
{ "type": "Feature", "properties": { "osm_id": "231498735", "code": 1001, "fclass": "city", "population": 7700, "name": "Yardımlı" }, "geometry": { "type": "Point", "coordinates": [ 48.2423036, 38.9074487 ] } },
{ "type": "Feature", "properties": { "osm_id": "231529396", "code": 1002, "fclass": "town", "population": 8700, "name": "Lerik" }, "geometry": { "type": "Point", "coordinates": [ 48.418155, 38.7752945 ] } },
{ "type": "Feature", "properties": { "osm_id": "231540379", "code": 1001, "fclass": "city", "population": 51600, "name": "Lənkəran" }, "geometry": { "type": "Point", "coordinates": [ 48.8539286, 38.7537311 ] } },
{ "type": "Feature", "properties": { "osm_id": "231795671", "code": 1001, "fclass": "city", "population": 36200, "name": "İmişli" }, "geometry": { "type": "Point", "coordinates": [ 48.0594743, 39.8716243 ] } },
{ "type": "Feature", "properties": { "osm_id": "232172609", "code": 1002, "fclass": "town", "population": 0, "name": "Zəngilan" }, "geometry": { "type": "Point", "coordinates": [ 46.6564485, 39.0863717 ] } },
{ "type": "Feature", "properties": { "osm_id": "232195052", "code": 1002, "fclass": "town", "population": 912, "name": "Cəbrayıl" }, "geometry": { "type": "Point", "coordinates": [ 47.0286002, 39.3958878 ] } },
{ "type": "Feature", "properties": { "osm_id": "232207244", "code": 1002, "fclass": "town", "population": 3132, "name": "Füzuli" }, "geometry": { "type": "Point", "coordinates": [ 47.1485708, 39.6007384 ] } },
{ "type": "Feature", "properties": { "osm_id": "232215256", "code": 1002, "fclass": "town", "population": 5800, "name": "Xocavənd" }, "geometry": { "type": "Point", "coordinates": [ 47.1109875, 39.795152 ] } },
{ "type": "Feature", "properties": { "osm_id": "232331884", "code": 1002, "fclass": "town", "population": 18000, "name": "Beyləqan" }, "geometry": { "type": "Point", "coordinates": [ 47.6153495, 39.7671115 ] } },
{ "type": "Feature", "properties": { "osm_id": "232351722", "code": 1002, "fclass": "town", "population": 32700, "name": "Ağdaş" }, "geometry": { "type": "Point", "coordinates": [ 47.4727422, 40.6440169 ] } },
{ "type": "Feature", "properties": { "osm_id": "234030668", "code": 1003, "fclass": "village", "population": 10700, "name": "Yuxarı Daşkəsən" }, "geometry": { "type": "Point", "coordinates": [ 46.0749209, 40.4933882 ] } },
{ "type": "Feature", "properties": { "osm_id": "234040855", "code": 1002, "fclass": "town", "population": 19900, "name": "Tərtər" }, "geometry": { "type": "Point", "coordinates": [ 46.9321023, 40.3429739 ] } },
{ "type": "Feature", "properties": { "osm_id": "234061921", "code": 1002, "fclass": "town", "population": 5000, "name": "Ağdərə" }, "geometry": { "type": "Point", "coordinates": [ 46.822373, 40.2100027 ] } },
{ "type": "Feature", "properties": { "osm_id": "234280798", "code": 1002, "fclass": "town", "population": 0, "name": "Əsgəran" }, "geometry": { "type": "Point", "coordinates": [ 46.8353633, 39.9379213 ] } },
{ "type": "Feature", "properties": { "osm_id": "234298960", "code": 1002, "fclass": "town", "population": 2090, "name": "Laçın" }, "geometry": { "type": "Point", "coordinates": [ 46.5488378, 39.6401825 ] } },
{ "type": "Feature", "properties": { "osm_id": "234330550", "code": 1002, "fclass": "town", "population": 324, "name": "Mincivan" }, "geometry": { "type": "Point", "coordinates": [ 46.7157787, 39.0285998 ] } },
{ "type": "Feature", "properties": { "osm_id": "235335652", "code": 1003, "fclass": "village", "population": 0, "name": "Daşburun" }, "geometry": { "type": "Point", "coordinates": [ 47.7121319, 39.6247493 ] } },
{ "type": "Feature", "properties": { "osm_id": "235453287", "code": 1002, "fclass": "town", "population": 5857, "name": "Yaycı" }, "geometry": { "type": "Point", "coordinates": [ 45.7323486, 38.9455814 ] } },
{ "type": "Feature", "properties": { "osm_id": "235488400", "code": 1003, "fclass": "village", "population": 0, "name": "Dəstə" }, "geometry": { "type": "Point", "coordinates": [ 45.9074432, 38.8834728 ] } },
{ "type": "Feature", "properties": { "osm_id": "244311324", "code": 1002, "fclass": "town", "population": 21800, "name": "Zaqatala" }, "geometry": { "type": "Point", "coordinates": [ 46.6435449, 41.6307469 ] } },
{ "type": "Feature", "properties": { "osm_id": "244311432", "code": 1002, "fclass": "town", "population": 25400, "name": "Quba" }, "geometry": { "type": "Point", "coordinates": [ 48.5142385, 41.3615456 ] } },
{ "type": "Feature", "properties": { "osm_id": "244311735", "code": 1002, "fclass": "town", "population": 14100, "name": "Qəbələ" }, "geometry": { "type": "Point", "coordinates": [ 47.8489094, 40.9785932 ] } },
{ "type": "Feature", "properties": { "osm_id": "244315387", "code": 1002, "fclass": "town", "population": 18600, "name": "Qusar" }, "geometry": { "type": "Point", "coordinates": [ 48.4327339, 41.4303387 ] } },
{ "type": "Feature", "properties": { "osm_id": "244340354", "code": 1002, "fclass": "town", "population": 34400, "name": "Lökbatan" }, "geometry": { "type": "Point", "coordinates": [ 49.7308283, 40.3252712 ] } },
{ "type": "Feature", "properties": { "osm_id": "244370824", "code": 1002, "fclass": "town", "population": 12500, "name": "Ələt" }, "geometry": { "type": "Point", "coordinates": [ 49.4066384, 39.9477043 ] } },
{ "type": "Feature", "properties": { "osm_id": "244371926", "code": 1003, "fclass": "village", "population": 5000, "name": "Səngəçal" }, "geometry": { "type": "Point", "coordinates": [ 49.4632768, 40.1708426 ] } },
{ "type": "Feature", "properties": { "osm_id": "244372671", "code": 1003, "fclass": "village", "population": 17400, "name": "Qobu" }, "geometry": { "type": "Point", "coordinates": [ 49.7143913, 40.401317 ] } },
{ "type": "Feature", "properties": { "osm_id": "275589728", "code": 1003, "fclass": "village", "population": 0, "name": "Bucaq" }, "geometry": { "type": "Point", "coordinates": [ 47.3710118, 41.0765541 ] } },
{ "type": "Feature", "properties": { "osm_id": "275590977", "code": 1004, "fclass": "hamlet", "population": 0, "name": "Cəfərabad" }, "geometry": { "type": "Point", "coordinates": [ 47.1557521, 41.0207413 ] } },
{ "type": "Feature", "properties": { "osm_id": "275612382", "code": 1002, "fclass": "town", "population": 26100, "name": "İsmayıllı" }, "geometry": { "type": "Point", "coordinates": [ 48.1485653, 40.788056 ] } },
{ "type": "Feature", "properties": { "osm_id": "339102495", "code": 1002, "fclass": "town", "population": 44800, "name": "Binəqədi" }, "geometry": { "type": "Point", "coordinates": [ 49.828023, 40.4679226 ] } },
{ "type": "Feature", "properties": { "osm_id": "339117816", "code": 1003, "fclass": "village", "population": 0, "name": "Hacıqəhrəmanlı" }, "geometry": { "type": "Point", "coordinates": [ 48.9254038, 39.8818949 ] } },
{ "type": "Feature", "properties": { "osm_id": "467023435", "code": 1003, "fclass": "village", "population": 465, "name": "Ջուջևան" }, "geometry": { "type": "Point", "coordinates": [ 45.0104844, 41.1298624 ] } },
{ "type": "Feature", "properties": { "osm_id": "467023436", "code": 1003, "fclass": "village", "population": 841, "name": "Բաղանիս" }, "geometry": { "type": "Point", "coordinates": [ 45.057075, 41.1096944 ] } },
{ "type": "Feature", "properties": { "osm_id": "467023633", "code": 1003, "fclass": "village", "population": 723, "name": "Ոսկեպար" }, "geometry": { "type": "Point", "coordinates": [ 45.0619719, 41.0683319 ] } },
{ "type": "Feature", "properties": { "osm_id": "467023634", "code": 1003, "fclass": "village", "population": 315, "name": "Կիրանց" }, "geometry": { "type": "Point", "coordinates": [ 45.0981768, 41.0470629 ] } },
{ "type": "Feature", "properties": { "osm_id": "760262846", "code": 1050, "fclass": "locality", "population": 0, "name": "მიჯნის ყურე" }, "geometry": { "type": "Point", "coordinates": [ 46.6482733, 41.1120967 ] } },
{ "type": "Feature", "properties": { "osm_id": "760262890", "code": 1050, "fclass": "locality", "population": 0, "name": "კაკლის ყურე" }, "geometry": { "type": "Point", "coordinates": [ 46.6553475, 41.3656787 ] } },
{ "type": "Feature", "properties": { "osm_id": "760262910", "code": 1050, "fclass": "locality", "population": 0, "name": "ტახის წყალი" }, "geometry": { "type": "Point", "coordinates": [ 46.6512277, 41.1567637 ] } },
{ "type": "Feature", "properties": { "osm_id": "874521594", "code": 1002, "fclass": "town", "population": 1354, "name": "سیه رود" }, "geometry": { "type": "Point", "coordinates": [ 46.0023332, 38.8693808 ] } },
{ "type": "Feature", "properties": { "osm_id": "883055278", "code": 1003, "fclass": "village", "population": 0, "name": "Muğanlı" }, "geometry": { "type": "Point", "coordinates": [ 46.4881614, 41.4735425 ] } },
{ "type": "Feature", "properties": { "osm_id": "883069464", "code": 1003, "fclass": "village", "population": 0, "name": "Dağlı" }, "geometry": { "type": "Point", "coordinates": [ 46.5303218, 41.5240895 ] } },
{ "type": "Feature", "properties": { "osm_id": "883072929", "code": 1003, "fclass": "village", "population": 0, "name": "Faldarlı" }, "geometry": { "type": "Point", "coordinates": [ 46.5191352, 41.4716968 ] } },
{ "type": "Feature", "properties": { "osm_id": "883075929", "code": 1003, "fclass": "village", "population": 0, "name": "Qandax" }, "geometry": { "type": "Point", "coordinates": [ 46.5432969, 41.4748006 ] } },
{ "type": "Feature", "properties": { "osm_id": "883090550", "code": 1003, "fclass": "village", "population": 0, "name": "Kəpənəkçi" }, "geometry": { "type": "Point", "coordinates": [ 46.542434, 41.4593816 ] } },
{ "type": "Feature", "properties": { "osm_id": "883105005", "code": 1003, "fclass": "village", "population": 0, "name": "Yengiyan" }, "geometry": { "type": "Point", "coordinates": [ 46.5741046, 41.4658849 ] } },
{ "type": "Feature", "properties": { "osm_id": "883110236", "code": 1003, "fclass": "village", "population": 0, "name": "Mosul" }, "geometry": { "type": "Point", "coordinates": [ 46.5756443, 41.4443354 ] } },
{ "type": "Feature", "properties": { "osm_id": "884304323", "code": 1003, "fclass": "village", "population": 9306, "name": "Sədərək" }, "geometry": { "type": "Point", "coordinates": [ 44.8817973, 39.7159815 ] } },
{ "type": "Feature", "properties": { "osm_id": "885867143", "code": 1003, "fclass": "village", "population": 0, "name": "Dağ Kəsəmən" }, "geometry": { "type": "Point", "coordinates": [ 45.3954454, 41.0951362 ] } },
{ "type": "Feature", "properties": { "osm_id": "885868332", "code": 1003, "fclass": "village", "population": 2710, "name": "Vurğun" }, "geometry": { "type": "Point", "coordinates": [ 45.4753703, 41.0936711 ] } },
{ "type": "Feature", "properties": { "osm_id": "885932792", "code": 1003, "fclass": "village", "population": 0, "name": "Cəfərli" }, "geometry": { "type": "Point", "coordinates": [ 45.2414177, 41.0316102 ] } },
{ "type": "Feature", "properties": { "osm_id": "885939247", "code": 1004, "fclass": "hamlet", "population": 0, "name": "Bala Cəfərli" }, "geometry": { "type": "Point", "coordinates": [ 45.2533752, 41.0179703 ] } },
{ "type": "Feature", "properties": { "osm_id": "885970926", "code": 1003, "fclass": "village", "population": 0, "name": "Eynallı" }, "geometry": { "type": "Point", "coordinates": [ 45.4987994, 41.0674563 ] } },
{ "type": "Feature", "properties": { "osm_id": "885974021", "code": 1003, "fclass": "village", "population": 5223, "name": "Köçəsgər" }, "geometry": { "type": "Point", "coordinates": [ 45.5178324, 41.0553055 ] } },
{ "type": "Feature", "properties": { "osm_id": "885977701", "code": 1003, "fclass": "village", "population": 0, "name": "Həsənsu" }, "geometry": { "type": "Point", "coordinates": [ 45.4920188, 41.0829689 ] } },
{ "type": "Feature", "properties": { "osm_id": "885979206", "code": 1003, "fclass": "village", "population": 0, "name": "Qırlı" }, "geometry": { "type": "Point", "coordinates": [ 45.5098931, 41.0924662 ] } },
{ "type": "Feature", "properties": { "osm_id": "886016376", "code": 1003, "fclass": "village", "population": 0, "name": "Düz Qırıqlı" }, "geometry": { "type": "Point", "coordinates": [ 45.7985203, 40.9419592 ] } },
{ "type": "Feature", "properties": { "osm_id": "886033088", "code": 1003, "fclass": "village", "population": 0, "name": "Alakol" }, "geometry": { "type": "Point", "coordinates": [ 45.7702766, 40.9051434 ] } },
{ "type": "Feature", "properties": { "osm_id": "886035342", "code": 1003, "fclass": "village", "population": 0, "name": "Zəyəm Cırdaxan" }, "geometry": { "type": "Point", "coordinates": [ 45.8215873, 40.8851401 ] } },
{ "type": "Feature", "properties": { "osm_id": "886037665", "code": 1003, "fclass": "village", "population": 0, "name": "Duyərli" }, "geometry": { "type": "Point", "coordinates": [ 45.8504856, 40.9148874 ] } },
{ "type": "Feature", "properties": { "osm_id": "886038351", "code": 1002, "fclass": "town", "population": 15500, "name": "Qovlar" }, "geometry": { "type": "Point", "coordinates": [ 45.7353477, 40.9465714 ] } },
{ "type": "Feature", "properties": { "osm_id": "886624952", "code": 1003, "fclass": "village", "population": 0, "name": "Böyük Kəsik" }, "geometry": { "type": "Point", "coordinates": [ 45.1878267, 41.389741 ] } },
{ "type": "Feature", "properties": { "osm_id": "886864603", "code": 1003, "fclass": "village", "population": 0, "name": "İkinci Şıxlı" }, "geometry": { "type": "Point", "coordinates": [ 45.1043789, 41.3101257 ] } },
{ "type": "Feature", "properties": { "osm_id": "892873378", "code": 1003, "fclass": "village", "population": 3261, "name": "Куйсун" }, "geometry": { "type": "Point", "coordinates": [ 48.2858591, 41.5709578 ] } },
{ "type": "Feature", "properties": { "osm_id": "892874933", "code": 1003, "fclass": "village", "population": 2069, "name": "Гильяр" }, "geometry": { "type": "Point", "coordinates": [ 48.258305, 41.559185 ] } },
{ "type": "Feature", "properties": { "osm_id": "893880080", "code": 1003, "fclass": "village", "population": 0, "name": "Yalama" }, "geometry": { "type": "Point", "coordinates": [ 48.5817652, 41.7579127 ] } },
{ "type": "Feature", "properties": { "osm_id": "922840319", "code": 1003, "fclass": "village", "population": 0, "name": "Bozalqanlı" }, "geometry": { "type": "Point", "coordinates": [ 45.6352348, 40.9908418 ] } },
{ "type": "Feature", "properties": { "osm_id": "922840321", "code": 1003, "fclass": "village", "population": 0, "name": "Düz Cırdaxan" }, "geometry": { "type": "Point", "coordinates": [ 45.610698, 41.0178197 ] } },
{ "type": "Feature", "properties": { "osm_id": "922842272", "code": 1003, "fclass": "village", "population": 0, "name": "Cəlilli" }, "geometry": { "type": "Point", "coordinates": [ 45.5981184, 41.0359459 ] } },
{ "type": "Feature", "properties": { "osm_id": "922847321", "code": 1003, "fclass": "village", "population": 0, "name": "Xatınlı" }, "geometry": { "type": "Point", "coordinates": [ 45.6427191, 41.0447039 ] } },
{ "type": "Feature", "properties": { "osm_id": "922849038", "code": 1003, "fclass": "village", "population": 0, "name": "Əlimərdanlı" }, "geometry": { "type": "Point", "coordinates": [ 45.6750174, 41.0375685 ] } },
{ "type": "Feature", "properties": { "osm_id": "922889935", "code": 1003, "fclass": "village", "population": 0, "name": "Poylu" }, "geometry": { "type": "Point", "coordinates": [ 45.4501517, 41.155355 ] } },
{ "type": "Feature", "properties": { "osm_id": "922906545", "code": 1003, "fclass": "village", "population": 0, "name": "Aşağı Göycəli" }, "geometry": { "type": "Point", "coordinates": [ 45.4830141, 41.1165839 ] } },
{ "type": "Feature", "properties": { "osm_id": "922906550", "code": 1003, "fclass": "village", "population": 0, "name": "Aşağı Kəsəmən" }, "geometry": { "type": "Point", "coordinates": [ 45.4881747, 41.15298 ] } },
{ "type": "Feature", "properties": { "osm_id": "922920067", "code": 1003, "fclass": "village", "population": 1163, "name": "Zəlimxan" }, "geometry": { "type": "Point", "coordinates": [ 45.4789371, 41.1701482 ] } },
{ "type": "Feature", "properties": { "osm_id": "922927610", "code": 1003, "fclass": "village", "population": 0, "name": "Qıraq Kəsəmən" }, "geometry": { "type": "Point", "coordinates": [ 45.4610756, 41.2140215 ] } },
{ "type": "Feature", "properties": { "osm_id": "922938472", "code": 1003, "fclass": "village", "population": 0, "name": "Poylu qəsəbəsi" }, "geometry": { "type": "Point", "coordinates": [ 45.4416759, 41.2280251 ] } },
{ "type": "Feature", "properties": { "osm_id": "922990639", "code": 1004, "fclass": "hamlet", "population": 0, "name": "Qaymaqlı" }, "geometry": { "type": "Point", "coordinates": [ 45.1388385, 41.2259554 ] } },
{ "type": "Feature", "properties": { "osm_id": "922990641", "code": 1003, "fclass": "village", "population": 0, "name": "Kəmərli" }, "geometry": { "type": "Point", "coordinates": [ 45.1013323, 41.2120431 ] } },
{ "type": "Feature", "properties": { "osm_id": "923000511", "code": 1004, "fclass": "hamlet", "population": 0, "name": "Ömərağalı" }, "geometry": { "type": "Point", "coordinates": [ 45.2051805, 41.2791614 ] } },
{ "type": "Feature", "properties": { "osm_id": "923000533", "code": 1003, "fclass": "village", "population": 0, "name": "Birinci Şıxlı" }, "geometry": { "type": "Point", "coordinates": [ 45.1571331, 41.2862874 ] } },
{ "type": "Feature", "properties": { "osm_id": "925855277", "code": 1004, "fclass": "hamlet", "population": 0, "name": "Almalıq" }, "geometry": { "type": "Point", "coordinates": [ 46.237613, 40.0996448 ] } },
{ "type": "Feature", "properties": { "osm_id": "925959119", "code": 1003, "fclass": "village", "population": 4100, "name": "Hadrut" }, "geometry": { "type": "Point", "coordinates": [ 47.0313751, 39.5190107 ] } },
{ "type": "Feature", "properties": { "osm_id": "925959157", "code": 1003, "fclass": "village", "population": 0, "name": "Qırmızı Bazar" }, "geometry": { "type": "Point", "coordinates": [ 46.9506393, 39.6773861 ] } },
{ "type": "Feature", "properties": { "osm_id": "928469942", "code": 1003, "fclass": "village", "population": 233, "name": "Ներքին Խնձորեսկ" }, "geometry": { "type": "Point", "coordinates": [ 46.50292, 39.4941293 ] } },
{ "type": "Feature", "properties": { "osm_id": "928504688", "code": 1003, "fclass": "village", "population": 646, "name": "Դավիթ Բեկ" }, "geometry": { "type": "Point", "coordinates": [ 46.4931755, 39.3209257 ] } },
{ "type": "Feature", "properties": { "osm_id": "1104258889", "code": 1001, "fclass": "city", "population": 377900, "name": "Sumqayıt" }, "geometry": { "type": "Point", "coordinates": [ 49.6696668, 40.5961585 ] } },
{ "type": "Feature", "properties": { "osm_id": "1117022680", "code": 1010, "fclass": "suburb", "population": 29500, "name": "Badamdar" }, "geometry": { "type": "Point", "coordinates": [ 49.8076646, 40.3411911 ] } },
{ "type": "Feature", "properties": { "osm_id": "1117022693", "code": 1010, "fclass": "suburb", "population": 0, "name": "Bayıl" }, "geometry": { "type": "Point", "coordinates": [ 49.8370641, 40.3447822 ] } },
{ "type": "Feature", "properties": { "osm_id": "1117022695", "code": 1003, "fclass": "village", "population": 2000, "name": "Gürgan" }, "geometry": { "type": "Point", "coordinates": [ 50.3352995, 40.3984764 ] } },
{ "type": "Feature", "properties": { "osm_id": "1117022698", "code": 1003, "fclass": "village", "population": 21400, "name": "Balaxanı" }, "geometry": { "type": "Point", "coordinates": [ 49.9214189, 40.4615983 ] } },
{ "type": "Feature", "properties": { "osm_id": "1117022714", "code": 1010, "fclass": "suburb", "population": 76700, "name": "Biləcəri" }, "geometry": { "type": "Point", "coordinates": [ 49.8095503, 40.4414812 ] } },
{ "type": "Feature", "properties": { "osm_id": "1334755393", "code": 1004, "fclass": "hamlet", "population": 0, "name": "Vəng" }, "geometry": { "type": "Point", "coordinates": [ 46.2838787, 40.1589647 ] } },
{ "type": "Feature", "properties": { "osm_id": "1334755394", "code": 1003, "fclass": "village", "population": 0, "name": "Zar" }, "geometry": { "type": "Point", "coordinates": [ 45.9540199, 40.0033547 ] } },
{ "type": "Feature", "properties": { "osm_id": "1334805676", "code": 1003, "fclass": "village", "population": 0, "name": "Heyvalı" }, "geometry": { "type": "Point", "coordinates": [ 46.6047548, 40.1469508 ] } },
{ "type": "Feature", "properties": { "osm_id": "1334896084", "code": 1004, "fclass": "hamlet", "population": 0, "name": "Mehmana" }, "geometry": { "type": "Point", "coordinates": [ 46.6717956, 40.1508822 ] } },
{ "type": "Feature", "properties": { "osm_id": "1334934164", "code": 1003, "fclass": "village", "population": 0, "name": "Qozlu" }, "geometry": { "type": "Point", "coordinates": [ 46.4735883, 40.1106347 ] } },
{ "type": "Feature", "properties": { "osm_id": "1334982343", "code": 1003, "fclass": "village", "population": 0, "name": "Həsənriz" }, "geometry": { "type": "Point", "coordinates": [ 46.5150936, 40.1615261 ] } },
{ "type": "Feature", "properties": { "osm_id": "1335007357", "code": 1004, "fclass": "hamlet", "population": 125, "name": "Zardaxaç" }, "geometry": { "type": "Point", "coordinates": [ 46.472653, 40.1530064 ] } },
{ "type": "Feature", "properties": { "osm_id": "1335876155", "code": 1003, "fclass": "village", "population": 0, "name": "Qozlukörpü" }, "geometry": { "type": "Point", "coordinates": [ 46.4583283, 40.1298358 ] } },
{ "type": "Feature", "properties": { "osm_id": "1335876162", "code": 1003, "fclass": "village", "population": 252, "name": "Çapar" }, "geometry": { "type": "Point", "coordinates": [ 46.4340466, 40.1619666 ] } },
{ "type": "Feature", "properties": { "osm_id": "1337149343", "code": 1003, "fclass": "village", "population": 0, "name": "Qızılqaya" }, "geometry": { "type": "Point", "coordinates": [ 46.5164792, 40.1242271 ] } },
{ "type": "Feature", "properties": { "osm_id": "1337149344", "code": 1003, "fclass": "village", "population": 0, "name": "Çərəkdar" }, "geometry": { "type": "Point", "coordinates": [ 46.34174, 40.142179 ] } },
{ "type": "Feature", "properties": { "osm_id": "1337684710", "code": 1003, "fclass": "village", "population": 0, "name": "Zəylik" }, "geometry": { "type": "Point", "coordinates": [ 46.5782353, 40.1694772 ] } },
{ "type": "Feature", "properties": { "osm_id": "1337684713", "code": 1003, "fclass": "village", "population": 0, "name": "Dəvədaşı" }, "geometry": { "type": "Point", "coordinates": [ 46.6161982, 40.1217922 ] } },
{ "type": "Feature", "properties": { "osm_id": "1337684720", "code": 1003, "fclass": "village", "population": 0, "name": "Kolatağ" }, "geometry": { "type": "Point", "coordinates": [ 46.6005178, 40.0028643 ] } },
{ "type": "Feature", "properties": { "osm_id": "1337684722", "code": 1003, "fclass": "village", "population": 0, "name": "Umudlu" }, "geometry": { "type": "Point", "coordinates": [ 46.5911041, 40.1906866 ] } },
{ "type": "Feature", "properties": { "osm_id": "1337684723", "code": 1003, "fclass": "village", "population": 0, "name": "Kiçik Qarabəy" }, "geometry": { "type": "Point", "coordinates": [ 46.756361, 40.2100184 ] } },
{ "type": "Feature", "properties": { "osm_id": "1337684724", "code": 1003, "fclass": "village", "population": 0, "name": "Yayıcı" }, "geometry": { "type": "Point", "coordinates": [ 46.5773164, 40.1263969 ] } },
{ "type": "Feature", "properties": { "osm_id": "1337684727", "code": 1003, "fclass": "village", "population": 0, "name": "Çıldıran" }, "geometry": { "type": "Point", "coordinates": [ 46.6444073, 40.1055845 ] } },
{ "type": "Feature", "properties": { "osm_id": "1337684729", "code": 1003, "fclass": "village", "population": 0, "name": "Dovşanlı" }, "geometry": { "type": "Point", "coordinates": [ 46.6113352, 40.0553886 ] } },
{ "type": "Feature", "properties": { "osm_id": "1337684730", "code": 1003, "fclass": "village", "population": 0, "name": "Çıraqlı" }, "geometry": { "type": "Point", "coordinates": [ 46.7388611, 40.1759907 ] } },
{ "type": "Feature", "properties": { "osm_id": "1337684737", "code": 1003, "fclass": "village", "population": 0, "name": "Ulu Qarabəy" }, "geometry": { "type": "Point", "coordinates": [ 46.7084865, 40.2132116 ] } },
{ "type": "Feature", "properties": { "osm_id": "1337684742", "code": 1003, "fclass": "village", "population": 0, "name": "Yuxarı Oratağ" }, "geometry": { "type": "Point", "coordinates": [ 46.5360289, 40.129158 ] } },
{ "type": "Feature", "properties": { "osm_id": "1337684744", "code": 1003, "fclass": "village", "population": 0, "name": "Çardaqlı" }, "geometry": { "type": "Point", "coordinates": [ 46.7148627, 40.2452244 ] } },
{ "type": "Feature", "properties": { "osm_id": "1337684750", "code": 1003, "fclass": "village", "population": 0, "name": "Ballıqaya" }, "geometry": { "type": "Point", "coordinates": [ 46.6738641, 40.0631856 ] } },
{ "type": "Feature", "properties": { "osm_id": "1337684752", "code": 1004, "fclass": "hamlet", "population": 0, "name": "Narınclar" }, "geometry": { "type": "Point", "coordinates": [ 46.4085976, 40.0381992 ] } },
{ "type": "Feature", "properties": { "osm_id": "1340040211", "code": 1003, "fclass": "village", "population": 90, "name": "Talış" }, "geometry": { "type": "Point", "coordinates": [ 46.7408333, 40.3775953 ] } },
{ "type": "Feature", "properties": { "osm_id": "1340040212", "code": 1003, "fclass": "village", "population": 0, "name": "Dəmirli" }, "geometry": { "type": "Point", "coordinates": [ 46.7652432, 40.1790628 ] } },
{ "type": "Feature", "properties": { "osm_id": "1340040214", "code": 1004, "fclass": "hamlet", "population": 0, "name": "Şahmansurlu" }, "geometry": { "type": "Point", "coordinates": [ 46.5661197, 40.061163 ] } },
{ "type": "Feature", "properties": { "osm_id": "1340040215", "code": 1003, "fclass": "village", "population": 0, "name": "Çormanlı" }, "geometry": { "type": "Point", "coordinates": [ 46.5677329, 40.0300826 ] } },
{ "type": "Feature", "properties": { "osm_id": "1340040216", "code": 1003, "fclass": "village", "population": 0, "name": "Suqovuşan" }, "geometry": { "type": "Point", "coordinates": [ 46.747001, 40.3248042 ] } },
{ "type": "Feature", "properties": { "osm_id": "1340040218", "code": 1003, "fclass": "village", "population": 0, "name": "Təpəkənd" }, "geometry": { "type": "Point", "coordinates": [ 46.6947755, 40.2994844 ] } },
{ "type": "Feature", "properties": { "osm_id": "1340040219", "code": 1003, "fclass": "village", "population": 0, "name": "Ağabəyyalı" }, "geometry": { "type": "Point", "coordinates": [ 46.7931574, 40.207393 ] } },
{ "type": "Feature", "properties": { "osm_id": "1340040220", "code": 1050, "fclass": "locality", "population": 0, "name": "Çiləbürt" }, "geometry": { "type": "Point", "coordinates": [ 46.8534706, 40.2626147 ] } },
{ "type": "Feature", "properties": { "osm_id": "1340040221", "code": 1003, "fclass": "village", "population": 0, "name": "Gülyataq" }, "geometry": { "type": "Point", "coordinates": [ 46.7518087, 40.1504586 ] } },
{ "type": "Feature", "properties": { "osm_id": "1340040222", "code": 1003, "fclass": "village", "population": 0, "name": "Bazarkənd" }, "geometry": { "type": "Point", "coordinates": [ 46.5851022, 40.0583215 ] } },
{ "type": "Feature", "properties": { "osm_id": "1340040225", "code": 1003, "fclass": "village", "population": 0, "name": "Vəngli" }, "geometry": { "type": "Point", "coordinates": [ 46.5457259, 40.0506579 ] } },
{ "type": "Feature", "properties": { "osm_id": "1340040226", "code": 1003, "fclass": "village", "population": 0, "name": "Canyataq" }, "geometry": { "type": "Point", "coordinates": [ 46.7737394, 40.1346406 ] } },
{ "type": "Feature", "properties": { "osm_id": "1342620543", "code": 1004, "fclass": "hamlet", "population": 0, "name": "Sırxavənd" }, "geometry": { "type": "Point", "coordinates": [ 46.696298, 40.0558408 ] } },
{ "type": "Feature", "properties": { "osm_id": "1342620544", "code": 1003, "fclass": "village", "population": 0, "name": "Meqrelalay" }, "geometry": { "type": "Point", "coordinates": [ 46.7357097, 40.2461658 ] } },
{ "type": "Feature", "properties": { "osm_id": "1342620546", "code": 1004, "fclass": "hamlet", "population": 0, "name": "Hayad" }, "geometry": { "type": "Point", "coordinates": [ 46.6411468, 40.0496819 ] } },
{ "type": "Feature", "properties": { "osm_id": "1342620547", "code": 1050, "fclass": "locality", "population": 0, "name": "Seysulan" }, "geometry": { "type": "Point", "coordinates": [ 46.9871035, 40.2477938 ] } },
{ "type": "Feature", "properties": { "osm_id": "1342620549", "code": 1003, "fclass": "village", "population": 0, "name": "Damğalı" }, "geometry": { "type": "Point", "coordinates": [ 46.6194154, 40.0163492 ] } },
{ "type": "Feature", "properties": { "osm_id": "1342620550", "code": 1003, "fclass": "village", "population": 0, "name": "Qızıl Kəngərli" }, "geometry": { "type": "Point", "coordinates": [ 46.881961, 40.1001549 ] } },
{ "type": "Feature", "properties": { "osm_id": "1342620551", "code": 1003, "fclass": "village", "population": 0, "name": "Lüləsaz" }, "geometry": { "type": "Point", "coordinates": [ 46.7318198, 40.2736892 ] } },
{ "type": "Feature", "properties": { "osm_id": "1342620552", "code": 1004, "fclass": "hamlet", "population": 0, "name": "Zağalar" }, "geometry": { "type": "Point", "coordinates": [ 46.3569149, 40.0172642 ] } },
{ "type": "Feature", "properties": { "osm_id": "1342620553", "code": 1003, "fclass": "village", "population": 313, "name": "Mollalar" }, "geometry": { "type": "Point", "coordinates": [ 46.825687, 40.0685885 ] } },
{ "type": "Feature", "properties": { "osm_id": "1342620554", "code": 1003, "fclass": "village", "population": 0, "name": "Əliağalı" }, "geometry": { "type": "Point", "coordinates": [ 46.7765852, 40.0388028 ] } },
{ "type": "Feature", "properties": { "osm_id": "1342620555", "code": 1050, "fclass": "locality", "population": 0, "name": "Qazançı" }, "geometry": { "type": "Point", "coordinates": [ 46.7486284, 40.0667336 ] } },
{ "type": "Feature", "properties": { "osm_id": "1343893908", "code": 1003, "fclass": "village", "population": 0, "name": "Şuşakənd" }, "geometry": { "type": "Point", "coordinates": [ 46.7864415, 39.7707404 ] } },
{ "type": "Feature", "properties": { "osm_id": "1343893911", "code": 1003, "fclass": "village", "population": 0, "name": "Dəmirçilər" }, "geometry": { "type": "Point", "coordinates": [ 46.8419374, 39.7143169 ] } },
{ "type": "Feature", "properties": { "osm_id": "1343893912", "code": 1003, "fclass": "village", "population": 0, "name": "Təzəbinə" }, "geometry": { "type": "Point", "coordinates": [ 46.7756972, 39.9304434 ] } },
{ "type": "Feature", "properties": { "osm_id": "1343893913", "code": 1003, "fclass": "village", "population": 0, "name": "Çanaqçı" }, "geometry": { "type": "Point", "coordinates": [ 46.8304362, 39.7036193 ] } },
{ "type": "Feature", "properties": { "osm_id": "1343893914", "code": 1003, "fclass": "village", "population": 0, "name": "Sığnaq" }, "geometry": { "type": "Point", "coordinates": [ 46.8014858, 39.7220845 ] } },
{ "type": "Feature", "properties": { "osm_id": "1343893916", "code": 1003, "fclass": "village", "population": 0, "name": "Dağyurd" }, "geometry": { "type": "Point", "coordinates": [ 46.9056906, 39.7229971 ] } },
{ "type": "Feature", "properties": { "osm_id": "1343893917", "code": 1003, "fclass": "village", "population": 0, "name": "Mədətkənd" }, "geometry": { "type": "Point", "coordinates": [ 46.8439575, 39.6990599 ] } },
{ "type": "Feature", "properties": { "osm_id": "1343893918", "code": 1003, "fclass": "village", "population": 0, "name": "Qızıloba" }, "geometry": { "type": "Point", "coordinates": [ 46.8517568, 39.7701241 ] } },
{ "type": "Feature", "properties": { "osm_id": "1343893919", "code": 1003, "fclass": "village", "population": 0, "name": "Aranzəmin" }, "geometry": { "type": "Point", "coordinates": [ 46.8946615, 39.8969101 ] } },
{ "type": "Feature", "properties": { "osm_id": "1343893920", "code": 1003, "fclass": "village", "population": 0, "name": "Qarabulaq" }, "geometry": { "type": "Point", "coordinates": [ 46.8657821, 39.7066979 ] } },
{ "type": "Feature", "properties": { "osm_id": "1343893921", "code": 1003, "fclass": "village", "population": 0, "name": "Ağgədik" }, "geometry": { "type": "Point", "coordinates": [ 46.8484274, 39.9041448 ] } },
{ "type": "Feature", "properties": { "osm_id": "1343893926", "code": 1003, "fclass": "village", "population": 0, "name": "Dağdağan" }, "geometry": { "type": "Point", "coordinates": [ 46.8219518, 39.8008522 ] } },
{ "type": "Feature", "properties": { "osm_id": "1343893930", "code": 1004, "fclass": "hamlet", "population": 0, "name": "Daşkənd" }, "geometry": { "type": "Point", "coordinates": [ 46.7825664, 39.7997746 ] } },
{ "type": "Feature", "properties": { "osm_id": "1343893938", "code": 1003, "fclass": "village", "population": 0, "name": "Naxçıvanlı" }, "geometry": { "type": "Point", "coordinates": [ 46.8733445, 39.9081592 ] } },
{ "type": "Feature", "properties": { "osm_id": "1343893939", "code": 1003, "fclass": "village", "population": 0, "name": "Dəhrəz" }, "geometry": { "type": "Point", "coordinates": [ 46.8731017, 39.871223 ] } },
{ "type": "Feature", "properties": { "osm_id": "1343893940", "code": 1003, "fclass": "village", "population": 0, "name": "Şelli" }, "geometry": { "type": "Point", "coordinates": [ 46.8923707, 39.9540133 ] } },
{ "type": "Feature", "properties": { "osm_id": "1343893951", "code": 1003, "fclass": "village", "population": 0, "name": "Harov" }, "geometry": { "type": "Point", "coordinates": [ 46.8503025, 39.8238903 ] } },
{ "type": "Feature", "properties": { "osm_id": "1343893954", "code": 1003, "fclass": "village", "population": 0, "name": "Aşağı Yemişcan" }, "geometry": { "type": "Point", "coordinates": [ 46.840316, 39.7407194 ] } },
{ "type": "Feature", "properties": { "osm_id": "1346817388", "code": 1003, "fclass": "village", "population": 0, "name": "Daşbaşı" }, "geometry": { "type": "Point", "coordinates": [ 46.8150693, 40.0061184 ] } },
{ "type": "Feature", "properties": { "osm_id": "1346817389", "code": 1003, "fclass": "village", "population": 0, "name": "Ağbulaq" }, "geometry": { "type": "Point", "coordinates": [ 46.9040491, 39.8786495 ] } },
{ "type": "Feature", "properties": { "osm_id": "1346817390", "code": 1003, "fclass": "village", "population": 0, "name": "Mehdibəyli" }, "geometry": { "type": "Point", "coordinates": [ 46.7334606, 39.8937997 ] } },
{ "type": "Feature", "properties": { "osm_id": "1346817391", "code": 1003, "fclass": "village", "population": 0, "name": "Xaçmaç" }, "geometry": { "type": "Point", "coordinates": [ 46.8760438, 39.7538539 ] } },
{ "type": "Feature", "properties": { "osm_id": "1346817392", "code": 1003, "fclass": "village", "population": 0, "name": "Qarakötük" }, "geometry": { "type": "Point", "coordinates": [ 46.7020142, 39.9553648 ] } },
{ "type": "Feature", "properties": { "osm_id": "1346817393", "code": 1003, "fclass": "village", "population": 0, "name": "Seyidbəyli" }, "geometry": { "type": "Point", "coordinates": [ 46.6960202, 39.9860312 ] } },
{ "type": "Feature", "properties": { "osm_id": "1346817394", "code": 1003, "fclass": "village", "population": 0, "name": "Muxtar" }, "geometry": { "type": "Point", "coordinates": [ 46.7766398, 39.7612156 ] } },
{ "type": "Feature", "properties": { "osm_id": "1346817395", "code": 1003, "fclass": "village", "population": 198, "name": "Həsənabad" }, "geometry": { "type": "Point", "coordinates": [ 46.7796659, 39.874773 ] } },
{ "type": "Feature", "properties": { "osm_id": "1346817397", "code": 1003, "fclass": "village", "population": 0, "name": "Qışlaq" }, "geometry": { "type": "Point", "coordinates": [ 46.7174794, 39.9756256 ] } },
{ "type": "Feature", "properties": { "osm_id": "1346817398", "code": 1003, "fclass": "village", "population": 0, "name": "Badara" }, "geometry": { "type": "Point", "coordinates": [ 46.6667421, 39.9229299 ] } },
{ "type": "Feature", "properties": { "osm_id": "1346817399", "code": 1003, "fclass": "village", "population": 0, "name": "Daşbulaq" }, "geometry": { "type": "Point", "coordinates": [ 46.7069455, 39.9244847 ] } },
{ "type": "Feature", "properties": { "osm_id": "1346817400", "code": 1003, "fclass": "village", "population": 0, "name": "Qayabaşı" }, "geometry": { "type": "Point", "coordinates": [ 46.7016471, 39.89714 ] } },
{ "type": "Feature", "properties": { "osm_id": "1346817401", "code": 1003, "fclass": "village", "population": 0, "name": "Sərdarkənd" }, "geometry": { "type": "Point", "coordinates": [ 46.7625699, 39.9890647 ] } },
{ "type": "Feature", "properties": { "osm_id": "1346817402", "code": 1050, "fclass": "locality", "population": 0, "name": "Xaçındərbətli" }, "geometry": { "type": "Point", "coordinates": [ 46.8325544, 40.0400143 ] } },
{ "type": "Feature", "properties": { "osm_id": "1346817403", "code": 1003, "fclass": "village", "population": 0, "name": "Xanyurdu" }, "geometry": { "type": "Point", "coordinates": [ 46.7470846, 39.8491462 ] } },
{ "type": "Feature", "properties": { "osm_id": "1346817404", "code": 1003, "fclass": "village", "population": 0, "name": "Ballıca" }, "geometry": { "type": "Point", "coordinates": [ 46.7271472, 39.8700119 ] } },
{ "type": "Feature", "properties": { "osm_id": "1346817405", "code": 1003, "fclass": "village", "population": 0, "name": "Şəlvə" }, "geometry": { "type": "Point", "coordinates": [ 46.7144154, 39.9886053 ] } },
{ "type": "Feature", "properties": { "osm_id": "1346817406", "code": 1003, "fclass": "village", "population": 0, "name": "Fərrux" }, "geometry": { "type": "Point", "coordinates": [ 46.8014171, 40.0186228 ] } },
{ "type": "Feature", "properties": { "osm_id": "1346817407", "code": 1003, "fclass": "village", "population": 0, "name": "Xanabad" }, "geometry": { "type": "Point", "coordinates": [ 46.818337, 39.9697112 ] } },
{ "type": "Feature", "properties": { "osm_id": "1346817408", "code": 1003, "fclass": "village", "population": 0, "name": "Almalı" }, "geometry": { "type": "Point", "coordinates": [ 46.6890951, 39.97009 ] } },
{ "type": "Feature", "properties": { "osm_id": "1346817411", "code": 1003, "fclass": "village", "population": 0, "name": "Pirlər" }, "geometry": { "type": "Point", "coordinates": [ 46.8362515, 39.9916544 ] } },
{ "type": "Feature", "properties": { "osm_id": "1346817412", "code": 1003, "fclass": "village", "population": 0, "name": "Dərələyəz" }, "geometry": { "type": "Point", "coordinates": [ 46.7581007, 39.9156472 ] } },
{ "type": "Feature", "properties": { "osm_id": "1346817413", "code": 1003, "fclass": "village", "population": 0, "name": "Xanyeri" }, "geometry": { "type": "Point", "coordinates": [ 46.6810542, 39.9364742 ] } },
{ "type": "Feature", "properties": { "osm_id": "1346973617", "code": 1004, "fclass": "hamlet", "population": 0, "name": "Onverst" }, "geometry": { "type": "Point", "coordinates": [ 46.6040614, 39.6740997 ] } },
{ "type": "Feature", "properties": { "osm_id": "1346973623", "code": 1003, "fclass": "village", "population": 0, "name": "Sarıbaba" }, "geometry": { "type": "Point", "coordinates": [ 46.5850645, 39.6795114 ] } },
{ "type": "Feature", "properties": { "osm_id": "1346973633", "code": 1003, "fclass": "village", "population": 130, "name": "Turşsu" }, "geometry": { "type": "Point", "coordinates": [ 46.6534122, 39.6855752 ] } },
{ "type": "Feature", "properties": { "osm_id": "1346973637", "code": 1003, "fclass": "village", "population": 190, "name": "Kiçik Qaladərəsi" }, "geometry": { "type": "Point", "coordinates": [ 46.6063629, 39.6391119 ] } },
{ "type": "Feature", "properties": { "osm_id": "1346973643", "code": 1003, "fclass": "village", "population": 0, "name": "Daşaltı" }, "geometry": { "type": "Point", "coordinates": [ 46.749067, 39.7441376 ] } },
{ "type": "Feature", "properties": { "osm_id": "1346973651", "code": 1004, "fclass": "hamlet", "population": 0, "name": "Köhnəkənd" }, "geometry": { "type": "Point", "coordinates": [ 46.7037168, 39.6334593 ] } },
{ "type": "Feature", "properties": { "osm_id": "1346973656", "code": 1003, "fclass": "village", "population": 116, "name": "Böyük Qaladərəsi" }, "geometry": { "type": "Point", "coordinates": [ 46.5970709, 39.6594571 ] } },
{ "type": "Feature", "properties": { "osm_id": "1346973668", "code": 1004, "fclass": "hamlet", "population": 0, "name": "Göytala" }, "geometry": { "type": "Point", "coordinates": [ 46.6145507, 39.6777838 ] } },
{ "type": "Feature", "properties": { "osm_id": "1347062768", "code": 1004, "fclass": "hamlet", "population": 0, "name": "Şıx Dursun" }, "geometry": { "type": "Point", "coordinates": [ 46.939946, 39.7054783 ] } },
{ "type": "Feature", "properties": { "osm_id": "1347062771", "code": 1004, "fclass": "hamlet", "population": 0, "name": "Xərxan" }, "geometry": { "type": "Point", "coordinates": [ 46.9444468, 39.7222946 ] } },
{ "type": "Feature", "properties": { "osm_id": "1347062772", "code": 1004, "fclass": "hamlet", "population": 0, "name": "Qarazəmi" }, "geometry": { "type": "Point", "coordinates": [ 46.9943642, 39.7321248 ] } },
{ "type": "Feature", "properties": { "osm_id": "1347062775", "code": 1003, "fclass": "village", "population": 151, "name": "Avdur" }, "geometry": { "type": "Point", "coordinates": [ 46.9396617, 39.84497 ] } },
{ "type": "Feature", "properties": { "osm_id": "1347062776", "code": 1003, "fclass": "village", "population": 0, "name": "Qacar" }, "geometry": { "type": "Point", "coordinates": [ 47.0583332, 39.6468868 ] } },
{ "type": "Feature", "properties": { "osm_id": "1347062778", "code": 1004, "fclass": "hamlet", "population": 0, "name": "Yenikənd" }, "geometry": { "type": "Point", "coordinates": [ 46.9795998, 39.8498965 ] } },
{ "type": "Feature", "properties": { "osm_id": "1347062779", "code": 1004, "fclass": "hamlet", "population": 0, "name": "Gavahın" }, "geometry": { "type": "Point", "coordinates": [ 46.9130849, 39.7650845 ] } },
{ "type": "Feature", "properties": { "osm_id": "1347062781", "code": 1003, "fclass": "village", "population": 0, "name": "Zərdankənd" }, "geometry": { "type": "Point", "coordinates": [ 46.8828082, 39.6694122 ] } },
{ "type": "Feature", "properties": { "osm_id": "1347062784", "code": 1004, "fclass": "hamlet", "population": 567, "name": "Quzumkənd" }, "geometry": { "type": "Point", "coordinates": [ 46.9932455, 39.745055 ] } },
{ "type": "Feature", "properties": { "osm_id": "1347062785", "code": 1003, "fclass": "village", "population": 0, "name": "Ağbulaq" }, "geometry": { "type": "Point", "coordinates": [ 46.913772, 39.7465573 ] } },
{ "type": "Feature", "properties": { "osm_id": "1347062789", "code": 1004, "fclass": "hamlet", "population": 0, "name": "Qağartsi" }, "geometry": { "type": "Point", "coordinates": [ 46.939781, 39.8170488 ] } },
{ "type": "Feature", "properties": { "osm_id": "1347062790", "code": 1003, "fclass": "village", "population": 0, "name": "Qarqar" }, "geometry": { "type": "Point", "coordinates": [ 46.9643762, 39.7030141 ] } },
{ "type": "Feature", "properties": { "osm_id": "1347062791", "code": 1003, "fclass": "village", "population": 0, "name": "Abdal" }, "geometry": { "type": "Point", "coordinates": [ 46.9334944, 39.8741753 ] } },
{ "type": "Feature", "properties": { "osm_id": "1347062793", "code": 1003, "fclass": "village", "population": 0, "name": "Kəndxurd" }, "geometry": { "type": "Point", "coordinates": [ 46.9646045, 39.780015 ] } },
{ "type": "Feature", "properties": { "osm_id": "1347062794", "code": 1004, "fclass": "hamlet", "population": 0, "name": "Mirikənd" }, "geometry": { "type": "Point", "coordinates": [ 46.9204881, 39.8431196 ] } },
{ "type": "Feature", "properties": { "osm_id": "1347062796", "code": 1003, "fclass": "village", "population": 0, "name": "Zavadıx" }, "geometry": { "type": "Point", "coordinates": [ 46.9556009, 39.7192903 ] } },
{ "type": "Feature", "properties": { "osm_id": "1347062797", "code": 1003, "fclass": "village", "population": 0, "name": "Cəmiyyət" }, "geometry": { "type": "Point", "coordinates": [ 46.88635, 39.7949195 ] } },
{ "type": "Feature", "properties": { "osm_id": "1347062798", "code": 1003, "fclass": "village", "population": 0, "name": "Çörəkli" }, "geometry": { "type": "Point", "coordinates": [ 46.9592045, 39.8449506 ] } },
{ "type": "Feature", "properties": { "osm_id": "1347062800", "code": 1003, "fclass": "village", "population": 0, "name": "Arpadüzü" }, "geometry": { "type": "Point", "coordinates": [ 46.9520503, 39.752449 ] } },
{ "type": "Feature", "properties": { "osm_id": "1347062802", "code": 1004, "fclass": "hamlet", "population": 0, "name": "Qarıtəpə" }, "geometry": { "type": "Point", "coordinates": [ 46.9437839, 39.8118498 ] } },
{ "type": "Feature", "properties": { "osm_id": "1347062804", "code": 1003, "fclass": "village", "population": 0, "name": "Həşan" }, "geometry": { "type": "Point", "coordinates": [ 46.9958087, 39.8460089 ] } },
{ "type": "Feature", "properties": { "osm_id": "1347126895", "code": 1003, "fclass": "village", "population": 0, "name": "Qarakənd" }, "geometry": { "type": "Point", "coordinates": [ 47.0272996, 39.8475049 ] } },
{ "type": "Feature", "properties": { "osm_id": "1347126896", "code": 1004, "fclass": "hamlet", "population": 0, "name": "Quzeyçartar" }, "geometry": { "type": "Point", "coordinates": [ 47.0113889, 39.7477778 ] } },
{ "type": "Feature", "properties": { "osm_id": "1347126897", "code": 1003, "fclass": "village", "population": 0, "name": "Cütcü" }, "geometry": { "type": "Point", "coordinates": [ 47.0250007, 39.6970418 ] } },
{ "type": "Feature", "properties": { "osm_id": "1347126898", "code": 1003, "fclass": "village", "population": 0, "name": "Sos" }, "geometry": { "type": "Point", "coordinates": [ 47.0088234, 39.7129924 ] } },
{ "type": "Feature", "properties": { "osm_id": "1347126899", "code": 1050, "fclass": "locality", "population": 0, "name": "Kuropatkino" }, "geometry": { "type": "Point", "coordinates": [ 47.1602117, 39.8361056 ] } },
{ "type": "Feature", "properties": { "osm_id": "1347126900", "code": 1003, "fclass": "village", "population": 0, "name": "Yemişcan" }, "geometry": { "type": "Point", "coordinates": [ 47.0110057, 39.8316196 ] } },
{ "type": "Feature", "properties": { "osm_id": "1347126901", "code": 1003, "fclass": "village", "population": 0, "name": "Ağkənd" }, "geometry": { "type": "Point", "coordinates": [ 47.0177778, 39.8233333 ] } },
{ "type": "Feature", "properties": { "osm_id": "1347126903", "code": 1004, "fclass": "hamlet", "population": 0, "name": "Əmiranlar" }, "geometry": { "type": "Point", "coordinates": [ 47.1362767, 39.7995389 ] } },
{ "type": "Feature", "properties": { "osm_id": "1347126904", "code": 1003, "fclass": "village", "population": 0, "name": "Çağadüz" }, "geometry": { "type": "Point", "coordinates": [ 46.8952316, 39.6924793 ] } },
{ "type": "Feature", "properties": { "osm_id": "1347126905", "code": 1003, "fclass": "village", "population": 0, "name": "Kiş" }, "geometry": { "type": "Point", "coordinates": [ 47.0262262, 39.7809198 ] } },
{ "type": "Feature", "properties": { "osm_id": "1347126906", "code": 1003, "fclass": "village", "population": 0, "name": "Xanoba" }, "geometry": { "type": "Point", "coordinates": [ 47.0401355, 39.7643052 ] } },
{ "type": "Feature", "properties": { "osm_id": "1348017614", "code": 1003, "fclass": "village", "population": 0, "name": "Çaylaqqala" }, "geometry": { "type": "Point", "coordinates": [ 46.7720512, 39.5457857 ] } },
{ "type": "Feature", "properties": { "osm_id": "1348088566", "code": 1003, "fclass": "village", "population": 0, "name": "Köhnə Tağlar" }, "geometry": { "type": "Point", "coordinates": [ 46.8226283, 39.5100217 ] } },
{ "type": "Feature", "properties": { "osm_id": "1348088572", "code": 1003, "fclass": "village", "population": 0, "name": "Dolanlar" }, "geometry": { "type": "Point", "coordinates": [ 46.8286092, 39.4458464 ] } },
{ "type": "Feature", "properties": { "osm_id": "1348105036", "code": 1004, "fclass": "hamlet", "population": 0, "name": "Arpagədik" }, "geometry": { "type": "Point", "coordinates": [ 46.7052508, 39.5587532 ] } },
{ "type": "Feature", "properties": { "osm_id": "1348150441", "code": 1003, "fclass": "village", "population": 0, "name": "Aşağı Sirik" }, "geometry": { "type": "Point", "coordinates": [ 46.8737326, 39.4736992 ] } },
{ "type": "Feature", "properties": { "osm_id": "1348150449", "code": 1050, "fclass": "locality", "population": 0, "name": "Sirik" }, "geometry": { "type": "Point", "coordinates": [ 46.8979411, 39.4197467 ] } },
{ "type": "Feature", "properties": { "osm_id": "1348150454", "code": 1003, "fclass": "village", "population": 0, "name": "Ağcakənd" }, "geometry": { "type": "Point", "coordinates": [ 46.8839495, 39.5005173 ] } },
{ "type": "Feature", "properties": { "osm_id": "1349663395", "code": 1004, "fclass": "hamlet", "population": 0, "name": "Günəşli" }, "geometry": { "type": "Point", "coordinates": [ 47.0823899, 39.4948227 ] } },
{ "type": "Feature", "properties": { "osm_id": "1349663415", "code": 1003, "fclass": "village", "population": 0, "name": "Mülküdərə" }, "geometry": { "type": "Point", "coordinates": [ 46.9315061, 39.4736742 ] } },
{ "type": "Feature", "properties": { "osm_id": "1349663417", "code": 1003, "fclass": "village", "population": 0, "name": "Çinarlı" }, "geometry": { "type": "Point", "coordinates": [ 47.019103, 39.511026 ] } },
{ "type": "Feature", "properties": { "osm_id": "1349663425", "code": 1003, "fclass": "village", "population": 0, "name": "Tağaser" }, "geometry": { "type": "Point", "coordinates": [ 47.0135925, 39.5194002 ] } },
{ "type": "Feature", "properties": { "osm_id": "1349663431", "code": 1003, "fclass": "village", "population": 0, "name": "Edişə" }, "geometry": { "type": "Point", "coordinates": [ 47.0014747, 39.5249633 ] } },
{ "type": "Feature", "properties": { "osm_id": "1349663439", "code": 1050, "fclass": "locality", "population": 0, "name": "Yuxarı Məzrə" }, "geometry": { "type": "Point", "coordinates": [ 46.9548315, 39.4597403 ] } },
{ "type": "Feature", "properties": { "osm_id": "1349663447", "code": 1003, "fclass": "village", "population": 0, "name": "Qoçbəyli" }, "geometry": { "type": "Point", "coordinates": [ 47.0666667, 39.5066667 ] } },
{ "type": "Feature", "properties": { "osm_id": "1349663450", "code": 1003, "fclass": "village", "population": 0, "name": "Dağdöşü" }, "geometry": { "type": "Point", "coordinates": [ 47.0318711, 39.5072099 ] } },
{ "type": "Feature", "properties": { "osm_id": "1349663452", "code": 1004, "fclass": "hamlet", "population": 0, "name": "Cilən" }, "geometry": { "type": "Point", "coordinates": [ 46.9788596, 39.4402238 ] } },
{ "type": "Feature", "properties": { "osm_id": "1349663513", "code": 1003, "fclass": "village", "population": 0, "name": "Dərəkənd" }, "geometry": { "type": "Point", "coordinates": [ 46.9665801, 39.496926 ] } },
{ "type": "Feature", "properties": { "osm_id": "1349663519", "code": 1003, "fclass": "village", "population": 0, "name": "Binədərəsi" }, "geometry": { "type": "Point", "coordinates": [ 47.0133359, 39.453805 ] } },
{ "type": "Feature", "properties": { "osm_id": "1349663529", "code": 1003, "fclass": "village", "population": 0, "name": "Məlikcanlı" }, "geometry": { "type": "Point", "coordinates": [ 47.081322, 39.5271974 ] } },
{ "type": "Feature", "properties": { "osm_id": "1349663546", "code": 1004, "fclass": "hamlet", "population": 0, "name": "Sor" }, "geometry": { "type": "Point", "coordinates": [ 47.0225133, 39.4900583 ] } },
{ "type": "Feature", "properties": { "osm_id": "1349663586", "code": 1003, "fclass": "village", "population": 0, "name": "Qırmızıqaya" }, "geometry": { "type": "Point", "coordinates": [ 47.0222222, 39.5391667 ] } },
{ "type": "Feature", "properties": { "osm_id": "1349663616", "code": 1003, "fclass": "village", "population": 0, "name": "Edilli" }, "geometry": { "type": "Point", "coordinates": [ 47.0688889, 39.5608333 ] } },
{ "type": "Feature", "properties": { "osm_id": "1351779850", "code": 1003, "fclass": "village", "population": 0, "name": "Düdükçü" }, "geometry": { "type": "Point", "coordinates": [ 47.0524158, 39.5757765 ] } },
{ "type": "Feature", "properties": { "osm_id": "1351779851", "code": 1050, "fclass": "locality", "population": 0, "name": "Üçbulaq" }, "geometry": { "type": "Point", "coordinates": [ 47.0315149, 39.587314 ] } },
{ "type": "Feature", "properties": { "osm_id": "1351779853", "code": 1003, "fclass": "village", "population": 0, "name": "Bulutan" }, "geometry": { "type": "Point", "coordinates": [ 47.0827943, 39.5373341 ] } },
{ "type": "Feature", "properties": { "osm_id": "1351779855", "code": 1003, "fclass": "village", "population": 0, "name": "Məmməddərə" }, "geometry": { "type": "Point", "coordinates": [ 47.0023628, 39.5721776 ] } },
{ "type": "Feature", "properties": { "osm_id": "1351779856", "code": 1003, "fclass": "village", "population": 0, "name": "Ağbulaq" }, "geometry": { "type": "Point", "coordinates": [ 47.0811111, 39.5563889 ] } },
{ "type": "Feature", "properties": { "osm_id": "1351779857", "code": 1003, "fclass": "village", "population": 0, "name": "Azıx" }, "geometry": { "type": "Point", "coordinates": [ 46.9775153, 39.6204403 ] } },
{ "type": "Feature", "properties": { "osm_id": "1351779858", "code": 1003, "fclass": "village", "population": 238, "name": "Çiraquz" }, "geometry": { "type": "Point", "coordinates": [ 47.0152872, 39.5770659 ] } },
{ "type": "Feature", "properties": { "osm_id": "1351779859", "code": 1003, "fclass": "village", "population": 0, "name": "Ağdam" }, "geometry": { "type": "Point", "coordinates": [ 46.9511409, 39.555155 ] } },
{ "type": "Feature", "properties": { "osm_id": "1351779861", "code": 1004, "fclass": "hamlet", "population": 0, "name": "Xırmancıq" }, "geometry": { "type": "Point", "coordinates": [ 47.0911886, 39.5446896 ] } },
{ "type": "Feature", "properties": { "osm_id": "1351779862", "code": 1003, "fclass": "village", "population": 0, "name": "Zoğalbulaq" }, "geometry": { "type": "Point", "coordinates": [ 47.0007042, 39.6282546 ] } },
{ "type": "Feature", "properties": { "osm_id": "1351779863", "code": 1003, "fclass": "village", "population": 0, "name": "Binə" }, "geometry": { "type": "Point", "coordinates": [ 46.8996647, 39.5857179 ] } },
{ "type": "Feature", "properties": { "osm_id": "1351779864", "code": 1004, "fclass": "hamlet", "population": 0, "name": "Axullu" }, "geometry": { "type": "Point", "coordinates": [ 47.0885621, 39.5653312 ] } },
{ "type": "Feature", "properties": { "osm_id": "1351779866", "code": 1003, "fclass": "village", "population": 0, "name": "Ataqut" }, "geometry": { "type": "Point", "coordinates": [ 46.9626807, 39.5714029 ] } },
{ "type": "Feature", "properties": { "osm_id": "1351779867", "code": 1003, "fclass": "village", "population": 0, "name": "Susanlıq" }, "geometry": { "type": "Point", "coordinates": [ 46.9304908, 39.569407 ] } },
{ "type": "Feature", "properties": { "osm_id": "1351779869", "code": 1003, "fclass": "village", "population": 0, "name": "Böyük Tağlar" }, "geometry": { "type": "Point", "coordinates": [ 46.9551429, 39.6219864 ] } },
{ "type": "Feature", "properties": { "osm_id": "1351825454", "code": 1050, "fclass": "locality", "population": 0, "name": "Minbaşılı" }, "geometry": { "type": "Point", "coordinates": [ 47.0300452, 39.3430772 ] } },
{ "type": "Feature", "properties": { "osm_id": "1355052127", "code": 1050, "fclass": "locality", "population": 0, "name": "Şamkənd" }, "geometry": { "type": "Point", "coordinates": [ 46.4184373, 39.8804429 ] } },
{ "type": "Feature", "properties": { "osm_id": "1355052133", "code": 1004, "fclass": "hamlet", "population": 0, "name": "Hoçaz" }, "geometry": { "type": "Point", "coordinates": [ 46.4553641, 39.6772826 ] } },
{ "type": "Feature", "properties": { "osm_id": "1355052155", "code": 1004, "fclass": "hamlet", "population": 0, "name": "Bozlu" }, "geometry": { "type": "Point", "coordinates": [ 46.333772, 39.6953512 ] } },
{ "type": "Feature", "properties": { "osm_id": "1355052158", "code": 1004, "fclass": "hamlet", "population": 0, "name": "Vəlibəyli" }, "geometry": { "type": "Point", "coordinates": [ 46.2957, 39.8206333 ] } },
{ "type": "Feature", "properties": { "osm_id": "1355052169", "code": 1004, "fclass": "hamlet", "population": 0, "name": "Təzəkənd" }, "geometry": { "type": "Point", "coordinates": [ 46.497658, 39.7609409 ] } },
{ "type": "Feature", "properties": { "osm_id": "1355052180", "code": 1004, "fclass": "hamlet", "population": 0, "name": "Ərikli" }, "geometry": { "type": "Point", "coordinates": [ 46.406781, 39.8509345 ] } },
{ "type": "Feature", "properties": { "osm_id": "1355052185", "code": 1004, "fclass": "hamlet", "population": 0, "name": "Qarıqışlaq" }, "geometry": { "type": "Point", "coordinates": [ 46.3865039, 39.6697743 ] } },
{ "type": "Feature", "properties": { "osm_id": "1355052199", "code": 1050, "fclass": "locality", "population": 0, "name": "Bülüldüz" }, "geometry": { "type": "Point", "coordinates": [ 46.5008037, 39.721884 ] } },
{ "type": "Feature", "properties": { "osm_id": "1355052206", "code": 1003, "fclass": "village", "population": 0, "name": "Ərdəşəvi" }, "geometry": { "type": "Point", "coordinates": [ 46.4832075, 39.765779 ] } },
{ "type": "Feature", "properties": { "osm_id": "1355052223", "code": 1004, "fclass": "hamlet", "population": 0, "name": "Qorçu" }, "geometry": { "type": "Point", "coordinates": [ 46.3464669, 39.8821635 ] } },
{ "type": "Feature", "properties": { "osm_id": "1355052226", "code": 1004, "fclass": "hamlet", "population": 0, "name": "Mirik" }, "geometry": { "type": "Point", "coordinates": [ 46.3326941, 39.6887059 ] } },
{ "type": "Feature", "properties": { "osm_id": "1355052232", "code": 1004, "fclass": "hamlet", "population": 0, "name": "Seyidlər" }, "geometry": { "type": "Point", "coordinates": [ 46.4629986, 39.7077393 ] } },
{ "type": "Feature", "properties": { "osm_id": "1355052257", "code": 1004, "fclass": "hamlet", "population": 0, "name": "Ağoğlan" }, "geometry": { "type": "Point", "coordinates": [ 46.4109415, 39.6428628 ] } },
{ "type": "Feature", "properties": { "osm_id": "1355052262", "code": 1004, "fclass": "hamlet", "population": 0, "name": "Kürdhacı" }, "geometry": { "type": "Point", "coordinates": [ 46.4144942, 39.82658 ] } },
{ "type": "Feature", "properties": { "osm_id": "1355052270", "code": 1003, "fclass": "village", "population": 0, "name": "Pircahan" }, "geometry": { "type": "Point", "coordinates": [ 46.4331539, 39.7286635 ] } },
{ "type": "Feature", "properties": { "osm_id": "1355052277", "code": 1004, "fclass": "hamlet", "population": 0, "name": "İmanlar" }, "geometry": { "type": "Point", "coordinates": [ 46.2911917, 39.8547976 ] } },
{ "type": "Feature", "properties": { "osm_id": "1355052285", "code": 1004, "fclass": "hamlet", "population": 0, "name": "Piçənis" }, "geometry": { "type": "Point", "coordinates": [ 46.4452827, 39.8040447 ] } },
{ "type": "Feature", "properties": { "osm_id": "1355052289", "code": 1004, "fclass": "hamlet", "population": 0, "name": "Əhmədli" }, "geometry": { "type": "Point", "coordinates": [ 46.2842443, 39.6849977 ] } },
{ "type": "Feature", "properties": { "osm_id": "1355052294", "code": 1004, "fclass": "hamlet", "population": 0, "name": "Hacıxanlı" }, "geometry": { "type": "Point", "coordinates": [ 46.2695663, 39.8576732 ] } },
{ "type": "Feature", "properties": { "osm_id": "1355052298", "code": 1050, "fclass": "locality", "population": 0, "name": "Malıbəy" }, "geometry": { "type": "Point", "coordinates": [ 46.4376875, 39.6239195 ] } },
{ "type": "Feature", "properties": { "osm_id": "1355052307", "code": 1050, "fclass": "locality", "population": 0, "name": "Hagnəzər" }, "geometry": { "type": "Point", "coordinates": [ 46.5111064, 39.7767316 ] } },
{ "type": "Feature", "properties": { "osm_id": "1355052308", "code": 1003, "fclass": "village", "population": 0, "name": "Ağbulaq" }, "geometry": { "type": "Point", "coordinates": [ 46.2587285, 39.7778923 ] } },
{ "type": "Feature", "properties": { "osm_id": "1355052319", "code": 1004, "fclass": "hamlet", "population": 0, "name": "Xaçınyalı" }, "geometry": { "type": "Point", "coordinates": [ 46.4269445, 39.8055556 ] } },
{ "type": "Feature", "properties": { "osm_id": "1355052325", "code": 1004, "fclass": "hamlet", "population": 0, "name": "Sonasar" }, "geometry": { "type": "Point", "coordinates": [ 46.4162195, 39.6994779 ] } },
{ "type": "Feature", "properties": { "osm_id": "1355052328", "code": 1004, "fclass": "hamlet", "population": 0, "name": "Ağcakənd" }, "geometry": { "type": "Point", "coordinates": [ 46.3365162, 39.7799423 ] } },
{ "type": "Feature", "properties": { "osm_id": "1355052337", "code": 1004, "fclass": "hamlet", "population": 0, "name": "Hacısamlı" }, "geometry": { "type": "Point", "coordinates": [ 46.4063026, 39.8016757 ] } },
{ "type": "Feature", "properties": { "osm_id": "1355052339", "code": 1050, "fclass": "locality", "population": 0, "name": "Çıraqlı" }, "geometry": { "type": "Point", "coordinates": [ 46.3123671, 39.7305693 ] } },
{ "type": "Feature", "properties": { "osm_id": "1355052350", "code": 1004, "fclass": "hamlet", "population": 0, "name": "Lələbağırlı" }, "geometry": { "type": "Point", "coordinates": [ 46.3544278, 39.9007542 ] } },
{ "type": "Feature", "properties": { "osm_id": "1355052356", "code": 1003, "fclass": "village", "population": 0, "name": "Qoşasu" }, "geometry": { "type": "Point", "coordinates": [ 46.3536059, 39.7740861 ] } },
{ "type": "Feature", "properties": { "osm_id": "1355052360", "code": 1003, "fclass": "village", "population": 0, "name": "Qarıkaha" }, "geometry": { "type": "Point", "coordinates": [ 46.5361668, 39.6554379 ] } },
{ "type": "Feature", "properties": { "osm_id": "1355052362", "code": 1004, "fclass": "hamlet", "population": 0, "name": "Şeylanlı" }, "geometry": { "type": "Point", "coordinates": [ 46.2858515, 39.7724552 ] } },
{ "type": "Feature", "properties": { "osm_id": "1355052375", "code": 1004, "fclass": "hamlet", "population": 0, "name": "Minkənd" }, "geometry": { "type": "Point", "coordinates": [ 46.2550905, 39.7115244 ] } },
{ "type": "Feature", "properties": { "osm_id": "1355052377", "code": 1004, "fclass": "hamlet", "population": 30, "name": "Sus" }, "geometry": { "type": "Point", "coordinates": [ 46.5139965, 39.6265678 ] } },
{ "type": "Feature", "properties": { "osm_id": "1355052385", "code": 1004, "fclass": "hamlet", "population": 0, "name": "Mayıs" }, "geometry": { "type": "Point", "coordinates": [ 46.4055556, 39.6938889 ] } },
{ "type": "Feature", "properties": { "osm_id": "1355052387", "code": 1004, "fclass": "hamlet", "population": 0, "name": "Bülövlük" }, "geometry": { "type": "Point", "coordinates": [ 46.3972222, 39.7772222 ] } },
{ "type": "Feature", "properties": { "osm_id": "1355052408", "code": 1050, "fclass": "locality", "population": 0, "name": "Budaqdərə" }, "geometry": { "type": "Point", "coordinates": [ 46.2653119, 39.8449563 ] } },
{ "type": "Feature", "properties": { "osm_id": "1355052416", "code": 1004, "fclass": "hamlet", "population": 0, "name": "Ağcayazı" }, "geometry": { "type": "Point", "coordinates": [ 46.4578863, 39.7866365 ] } },
{ "type": "Feature", "properties": { "osm_id": "1355052427", "code": 1004, "fclass": "hamlet", "population": 0, "name": "Çorman" }, "geometry": { "type": "Point", "coordinates": [ 46.4483333, 39.8611111 ] } },
{ "type": "Feature", "properties": { "osm_id": "1355052433", "code": 1004, "fclass": "hamlet", "population": 0, "name": "Daşlı" }, "geometry": { "type": "Point", "coordinates": [ 46.3273616, 39.8197402 ] } },
{ "type": "Feature", "properties": { "osm_id": "1355052440", "code": 1004, "fclass": "hamlet", "population": 0, "name": "Arduşlu" }, "geometry": { "type": "Point", "coordinates": [ 46.480694, 39.8040868 ] } },
{ "type": "Feature", "properties": { "osm_id": "1355052442", "code": 1004, "fclass": "hamlet", "population": 0, "name": "Qızılca" }, "geometry": { "type": "Point", "coordinates": [ 46.5044326, 39.6426529 ] } },
{ "type": "Feature", "properties": { "osm_id": "1355052454", "code": 1004, "fclass": "hamlet", "population": 0, "name": "Qarabəyli" }, "geometry": { "type": "Point", "coordinates": [ 46.3848653, 39.8797249 ] } },
{ "type": "Feature", "properties": { "osm_id": "1355052458", "code": 1050, "fclass": "locality", "population": 0, "name": "Mollalar" }, "geometry": { "type": "Point", "coordinates": [ 46.4900542, 39.6677436 ] } },
{ "type": "Feature", "properties": { "osm_id": "1355052465", "code": 1050, "fclass": "locality", "population": 0, "name": "Alpout" }, "geometry": { "type": "Point", "coordinates": [ 46.3701848, 39.7558748 ] } },
{ "type": "Feature", "properties": { "osm_id": "1355052469", "code": 1004, "fclass": "hamlet", "population": 0, "name": "Vaqazin" }, "geometry": { "type": "Point", "coordinates": [ 46.4796514, 39.7799224 ] } },
{ "type": "Feature", "properties": { "osm_id": "1355052471", "code": 1003, "fclass": "village", "population": 215, "name": "Aşağı Sus" }, "geometry": { "type": "Point", "coordinates": [ 46.530536, 39.6367662 ] } },
{ "type": "Feature", "properties": { "osm_id": "1355052474", "code": 1004, "fclass": "hamlet", "population": 0, "name": "Katos" }, "geometry": { "type": "Point", "coordinates": [ 46.3063155, 39.7655085 ] } },
{ "type": "Feature", "properties": { "osm_id": "1355052484", "code": 1004, "fclass": "hamlet", "population": 0, "name": "Qalaça" }, "geometry": { "type": "Point", "coordinates": [ 46.2960986, 39.6959079 ] } },
{ "type": "Feature", "properties": { "osm_id": "1355052492", "code": 1050, "fclass": "locality", "population": 0, "name": "Narişlar" }, "geometry": { "type": "Point", "coordinates": [ 46.3010489, 39.8077398 ] } },
{ "type": "Feature", "properties": { "osm_id": "1355052494", "code": 1004, "fclass": "hamlet", "population": 0, "name": "Mişni" }, "geometry": { "type": "Point", "coordinates": [ 46.394423, 39.7126612 ] } },
{ "type": "Feature", "properties": { "osm_id": "1355052500", "code": 1004, "fclass": "hamlet", "population": 0, "name": "Əliqulu" }, "geometry": { "type": "Point", "coordinates": [ 46.4095484, 39.7475469 ] } },
{ "type": "Feature", "properties": { "osm_id": "1355052510", "code": 1050, "fclass": "locality", "population": 0, "name": "Hətəmlər" }, "geometry": { "type": "Point", "coordinates": [ 46.3489198, 39.8306829 ] } },
{ "type": "Feature", "properties": { "osm_id": "1355052519", "code": 1050, "fclass": "locality", "population": 0, "name": "Kalafalıq" }, "geometry": { "type": "Point", "coordinates": [ 46.5324437, 39.7970802 ] } },
{ "type": "Feature", "properties": { "osm_id": "1355052521", "code": 1004, "fclass": "hamlet", "population": 0, "name": "Qarakeçdi" }, "geometry": { "type": "Point", "coordinates": [ 46.272072, 39.7541662 ] } },
{ "type": "Feature", "properties": { "osm_id": "1355395765", "code": 1050, "fclass": "locality", "population": 0, "name": "Əfəndilər" }, "geometry": { "type": "Point", "coordinates": [ 46.6991825, 39.3300768 ] } },
{ "type": "Feature", "properties": { "osm_id": "1355395780", "code": 1004, "fclass": "hamlet", "population": 0, "name": "Məlikli" }, "geometry": { "type": "Point", "coordinates": [ 46.6877601, 39.0717934 ] } },
{ "type": "Feature", "properties": { "osm_id": "1355395783", "code": 1004, "fclass": "hamlet", "population": 0, "name": "Aşağı Fərəcan" }, "geometry": { "type": "Point", "coordinates": [ 46.6611111, 39.5286111 ] } },
{ "type": "Feature", "properties": { "osm_id": "1355395785", "code": 1050, "fclass": "locality", "population": 0, "name": "Diləli Müskənli" }, "geometry": { "type": "Point", "coordinates": [ 46.6482004, 39.3033188 ] } },
{ "type": "Feature", "properties": { "osm_id": "1355395788", "code": 1050, "fclass": "locality", "population": 0, "name": "Qiyaslı" }, "geometry": { "type": "Point", "coordinates": [ 46.7033796, 39.1748802 ] } },
{ "type": "Feature", "properties": { "osm_id": "1355395794", "code": 1004, "fclass": "hamlet", "population": 0, "name": "Qıraq Muşlan" }, "geometry": { "type": "Point", "coordinates": [ 46.6802778, 39.0638889 ] } },
{ "type": "Feature", "properties": { "osm_id": "1355395812", "code": 1003, "fclass": "village", "population": 0, "name": "Muradxanlı" }, "geometry": { "type": "Point", "coordinates": [ 46.6263889, 39.4544445 ] } },
{ "type": "Feature", "properties": { "osm_id": "1355395814", "code": 1004, "fclass": "hamlet", "population": 0, "name": "Muğanlı" }, "geometry": { "type": "Point", "coordinates": [ 46.731588, 39.2378438 ] } },
{ "type": "Feature", "properties": { "osm_id": "1355395817", "code": 1003, "fclass": "village", "population": 0, "name": "Sarıyataq" }, "geometry": { "type": "Point", "coordinates": [ 46.6601764, 39.3783046 ] } },
{ "type": "Feature", "properties": { "osm_id": "1355395818", "code": 1050, "fclass": "locality", "population": 0, "name": "Vənədli" }, "geometry": { "type": "Point", "coordinates": [ 46.6367491, 39.1531067 ] } },
{ "type": "Feature", "properties": { "osm_id": "1355395824", "code": 1050, "fclass": "locality", "population": 0, "name": "Malxələf" }, "geometry": { "type": "Point", "coordinates": [ 46.5910998, 39.5523163 ] } },
{ "type": "Feature", "properties": { "osm_id": "1355395825", "code": 1003, "fclass": "village", "population": 0, "name": "Xocahan" }, "geometry": { "type": "Point", "coordinates": [ 46.7186111, 39.1911111 ] } },
{ "type": "Feature", "properties": { "osm_id": "1355395840", "code": 1050, "fclass": "locality", "population": 0, "name": "Hal" }, "geometry": { "type": "Point", "coordinates": [ 46.6763946, 39.2756786 ] } },
{ "type": "Feature", "properties": { "osm_id": "1355395848", "code": 1050, "fclass": "locality", "population": 0, "name": "Fətəlipəyə" }, "geometry": { "type": "Point", "coordinates": [ 46.5721357, 39.604405 ] } },
{ "type": "Feature", "properties": { "osm_id": "1355395852", "code": 1004, "fclass": "hamlet", "population": 0, "name": "Səfiyan" }, "geometry": { "type": "Point", "coordinates": [ 46.6316554, 39.5272137 ] } },
{ "type": "Feature", "properties": { "osm_id": "1355395853", "code": 1004, "fclass": "hamlet", "population": 0, "name": "Rəbənd" }, "geometry": { "type": "Point", "coordinates": [ 46.7318842, 39.1747927 ] } },
{ "type": "Feature", "properties": { "osm_id": "1355395861", "code": 1050, "fclass": "locality", "population": 0, "name": "Başarat" }, "geometry": { "type": "Point", "coordinates": [ 46.7264246, 39.4670458 ] } },
{ "type": "Feature", "properties": { "osm_id": "1355395865", "code": 1050, "fclass": "locality", "population": 0, "name": "Bartaz" }, "geometry": { "type": "Point", "coordinates": [ 46.5932511, 38.9794508 ] } },
{ "type": "Feature", "properties": { "osm_id": "1355395875", "code": 1050, "fclass": "locality", "population": 0, "name": "Çullu" }, "geometry": { "type": "Point", "coordinates": [ 46.7153276, 39.4068133 ] } },
{ "type": "Feature", "properties": { "osm_id": "1355395881", "code": 1050, "fclass": "locality", "population": 0, "name": "Həmzəli" }, "geometry": { "type": "Point", "coordinates": [ 46.7070842, 39.3142445 ] } },
{ "type": "Feature", "properties": { "osm_id": "1355395902", "code": 1003, "fclass": "village", "population": 0, "name": "İşıqlı" }, "geometry": { "type": "Point", "coordinates": [ 46.6598069, 39.4003521 ] } },
{ "type": "Feature", "properties": { "osm_id": "1355395904", "code": 1050, "fclass": "locality", "population": 0, "name": "İsgəndərbəyli" }, "geometry": { "type": "Point", "coordinates": [ 46.6462842, 39.1889774 ] } },
{ "type": "Feature", "properties": { "osm_id": "1355395907", "code": 1004, "fclass": "hamlet", "population": 0, "name": "Ördəkli" }, "geometry": { "type": "Point", "coordinates": [ 46.6422222, 39.0391667 ] } },
{ "type": "Feature", "properties": { "osm_id": "1355395911", "code": 1003, "fclass": "village", "population": 0, "name": "Qılıcan" }, "geometry": { "type": "Point", "coordinates": [ 46.7128333, 39.2037877 ] } },
{ "type": "Feature", "properties": { "osm_id": "1355395928", "code": 1003, "fclass": "village", "population": 0, "name": "Xanlıq" }, "geometry": { "type": "Point", "coordinates": [ 46.7196552, 39.2727236 ] } },
{ "type": "Feature", "properties": { "osm_id": "1355395931", "code": 1003, "fclass": "village", "population": 0, "name": "Xəndək" }, "geometry": { "type": "Point", "coordinates": [ 46.6502669, 39.4150272 ] } },
{ "type": "Feature", "properties": { "osm_id": "1355395933", "code": 1050, "fclass": "locality", "population": 0, "name": "Padar" }, "geometry": { "type": "Point", "coordinates": [ 46.6744445, 39.3791667 ] } },
{ "type": "Feature", "properties": { "osm_id": "1355395943", "code": 1004, "fclass": "hamlet", "population": 0, "name": "Quşçular" }, "geometry": { "type": "Point", "coordinates": [ 46.6322085, 39.5126115 ] } },
{ "type": "Feature", "properties": { "osm_id": "1355395945", "code": 1004, "fclass": "hamlet", "population": 0, "name": "Birinci Alıbəyli" }, "geometry": { "type": "Point", "coordinates": [ 46.7404309, 39.1619259 ] } },
{ "type": "Feature", "properties": { "osm_id": "1355395958", "code": 1004, "fclass": "hamlet", "population": 0, "name": "Çöpədərə" }, "geometry": { "type": "Point", "coordinates": [ 46.6398537, 39.0053995 ] } },
{ "type": "Feature", "properties": { "osm_id": "1355395961", "code": 1004, "fclass": "hamlet", "population": 0, "name": "Qəzyan" }, "geometry": { "type": "Point", "coordinates": [ 46.6650847, 39.2933418 ] } },
{ "type": "Feature", "properties": { "osm_id": "1355395964", "code": 1004, "fclass": "hamlet", "population": 0, "name": "Qaracallı" }, "geometry": { "type": "Point", "coordinates": [ 46.6398392, 39.4156121 ] } },
{ "type": "Feature", "properties": { "osm_id": "1355395966", "code": 1004, "fclass": "hamlet", "population": 0, "name": "Kavdadıq" }, "geometry": { "type": "Point", "coordinates": [ 46.7097222, 39.2372222 ] } },
{ "type": "Feature", "properties": { "osm_id": "1355395970", "code": 1050, "fclass": "locality", "population": 0, "name": "Mığıdərə" }, "geometry": { "type": "Point", "coordinates": [ 46.6133536, 39.5765114 ] } },
{ "type": "Feature", "properties": { "osm_id": "1355395989", "code": 1004, "fclass": "hamlet", "population": 0, "name": "Cahangirbəyli" }, "geometry": { "type": "Point", "coordinates": [ 46.7388889, 39.0525 ] } },
{ "type": "Feature", "properties": { "osm_id": "1355395998", "code": 1050, "fclass": "locality", "population": 0, "name": "Məlikpaya" }, "geometry": { "type": "Point", "coordinates": [ 46.604274, 39.5663731 ] } },
{ "type": "Feature", "properties": { "osm_id": "1355396000", "code": 1004, "fclass": "hamlet", "population": 0, "name": "Məşədiismayıllı" }, "geometry": { "type": "Point", "coordinates": [ 46.5958043, 39.0695817 ] } },
{ "type": "Feature", "properties": { "osm_id": "1355396026", "code": 1050, "fclass": "locality", "population": 0, "name": "Qaragöl" }, "geometry": { "type": "Point", "coordinates": [ 46.5413793, 39.1249943 ] } },
{ "type": "Feature", "properties": { "osm_id": "1355396029", "code": 1050, "fclass": "locality", "population": 0, "name": "Yuxarı Mollu" }, "geometry": { "type": "Point", "coordinates": [ 46.6877007, 39.3267785 ] } },
{ "type": "Feature", "properties": { "osm_id": "1355396053", "code": 1003, "fclass": "village", "population": 0, "name": "Qarakişilər" }, "geometry": { "type": "Point", "coordinates": [ 46.6280556, 39.4377778 ] } },
{ "type": "Feature", "properties": { "osm_id": "1355396054", "code": 1004, "fclass": "hamlet", "population": 0, "name": "Xumarlı" }, "geometry": { "type": "Point", "coordinates": [ 46.7763737, 39.1437453 ] } },
{ "type": "Feature", "properties": { "osm_id": "1355396055", "code": 1004, "fclass": "hamlet", "population": 0, "name": "Mamar" }, "geometry": { "type": "Point", "coordinates": [ 46.6936765, 39.2531278 ] } },
{ "type": "Feature", "properties": { "osm_id": "1355396059", "code": 1004, "fclass": "hamlet", "population": 0, "name": "Rəzdərə" }, "geometry": { "type": "Point", "coordinates": [ 46.5628509, 39.0668275 ] } },
{ "type": "Feature", "properties": { "osm_id": "1355396061", "code": 1050, "fclass": "locality", "population": 0, "name": "Aşağı Mollu" }, "geometry": { "type": "Point", "coordinates": [ 46.6983333, 39.3030556 ] } },
{ "type": "Feature", "properties": { "osm_id": "1355396064", "code": 1004, "fclass": "hamlet", "population": 0, "name": "Sarıl" }, "geometry": { "type": "Point", "coordinates": [ 46.7612632, 39.15 ] } },
{ "type": "Feature", "properties": { "osm_id": "1355396078", "code": 1050, "fclass": "locality", "population": 0, "name": "Suarası" }, "geometry": { "type": "Point", "coordinates": [ 46.6710426, 39.5650235 ] } },
{ "type": "Feature", "properties": { "osm_id": "1355396079", "code": 1050, "fclass": "locality", "population": 0, "name": "Saray" }, "geometry": { "type": "Point", "coordinates": [ 46.6321857, 39.3115729 ] } },
{ "type": "Feature", "properties": { "osm_id": "1355396085", "code": 1003, "fclass": "village", "population": 0, "name": "Qarağac" }, "geometry": { "type": "Point", "coordinates": [ 46.6509941, 39.394743 ] } },
{ "type": "Feature", "properties": { "osm_id": "1355396091", "code": 1004, "fclass": "hamlet", "population": 0, "name": "Əbilcə" }, "geometry": { "type": "Point", "coordinates": [ 46.7070006, 39.2209699 ] } },
{ "type": "Feature", "properties": { "osm_id": "1355396107", "code": 1004, "fclass": "hamlet", "population": 0, "name": "Kürd Mahrızlı" }, "geometry": { "type": "Point", "coordinates": [ 46.7351394, 39.2128507 ] } },
{ "type": "Feature", "properties": { "osm_id": "1355396113", "code": 1003, "fclass": "village", "population": 823, "name": "Zabux" }, "geometry": { "type": "Point", "coordinates": [ 46.5430068, 39.591057 ] } },
{ "type": "Feature", "properties": { "osm_id": "1355396117", "code": 1004, "fclass": "hamlet", "population": 0, "name": "Balasoltanlı" }, "geometry": { "type": "Point", "coordinates": [ 46.6768172, 39.3612478 ] } },
{ "type": "Feature", "properties": { "osm_id": "1355396120", "code": 1050, "fclass": "locality", "population": 0, "name": "Cicimli" }, "geometry": { "type": "Point", "coordinates": [ 46.5172687, 39.5164177 ] } },
{ "type": "Feature", "properties": { "osm_id": "1355396137", "code": 1003, "fclass": "village", "population": 0, "name": "Güləbird" }, "geometry": { "type": "Point", "coordinates": [ 46.6090574, 39.4818284 ] } },
{ "type": "Feature", "properties": { "osm_id": "1355396143", "code": 1004, "fclass": "hamlet", "population": 0, "name": "Ağanus" }, "geometry": { "type": "Point", "coordinates": [ 46.5746271, 39.6183617 ] } },
{ "type": "Feature", "properties": { "osm_id": "1355396144", "code": 1050, "fclass": "locality", "population": 0, "name": "Keçikli" }, "geometry": { "type": "Point", "coordinates": [ 46.5728735, 39.0982897 ] } },
{ "type": "Feature", "properties": { "osm_id": "1356159560", "code": 1003, "fclass": "village", "population": 0, "name": "Yuxarı Ağalı" }, "geometry": { "type": "Point", "coordinates": [ 48.4538167, 39.4252891 ] } },
{ "type": "Feature", "properties": { "osm_id": "1359848374", "code": 1050, "fclass": "locality", "population": 0, "name": "Zivel" }, "geometry": { "type": "Point", "coordinates": [ 45.9445666, 39.9782535 ] } },
{ "type": "Feature", "properties": { "osm_id": "1359848375", "code": 1050, "fclass": "locality", "population": 0, "name": "Comərd" }, "geometry": { "type": "Point", "coordinates": [ 46.217933, 40.1344593 ] } },
{ "type": "Feature", "properties": { "osm_id": "1359848376", "code": 1003, "fclass": "village", "population": 0, "name": "Zülfüqarlı" }, "geometry": { "type": "Point", "coordinates": [ 46.2359514, 40.0712898 ] } },
{ "type": "Feature", "properties": { "osm_id": "1359848377", "code": 1050, "fclass": "locality", "population": 0, "name": "Yenikənd" }, "geometry": { "type": "Point", "coordinates": [ 46.1398195, 40.2258278 ] } },
{ "type": "Feature", "properties": { "osm_id": "1359848378", "code": 1050, "fclass": "locality", "population": 0, "name": "Alırzalar" }, "geometry": { "type": "Point", "coordinates": [ 46.2046732, 39.9787338 ] } },
{ "type": "Feature", "properties": { "osm_id": "1359848379", "code": 1050, "fclass": "locality", "population": 0, "name": "Qasımlar" }, "geometry": { "type": "Point", "coordinates": [ 46.0693316, 40.1702414 ] } },
{ "type": "Feature", "properties": { "osm_id": "1359848380", "code": 1050, "fclass": "locality", "population": 0, "name": "Çovdar" }, "geometry": { "type": "Point", "coordinates": [ 46.1606971, 39.9507722 ] } },
{ "type": "Feature", "properties": { "osm_id": "1359848381", "code": 1004, "fclass": "hamlet", "population": 0, "name": "Qamışlı" }, "geometry": { "type": "Point", "coordinates": [ 46.1948816, 40.2064893 ] } },
{ "type": "Feature", "properties": { "osm_id": "1359848382", "code": 1004, "fclass": "hamlet", "population": 0, "name": "Nadirxanlı" }, "geometry": { "type": "Point", "coordinates": [ 46.1599242, 40.1812463 ] } },
{ "type": "Feature", "properties": { "osm_id": "1359848383", "code": 1050, "fclass": "locality", "population": 0, "name": "Abdullauşağı" }, "geometry": { "type": "Point", "coordinates": [ 46.2030861, 40.0547899 ] } },
{ "type": "Feature", "properties": { "osm_id": "1359848384", "code": 1050, "fclass": "locality", "population": 0, "name": "Xallanlı" }, "geometry": { "type": "Point", "coordinates": [ 46.1752496, 39.9720238 ] } },
{ "type": "Feature", "properties": { "osm_id": "1359848385", "code": 1050, "fclass": "locality", "population": 0, "name": "Mişni" }, "geometry": { "type": "Point", "coordinates": [ 46.0477782, 40.1597122 ] } },
{ "type": "Feature", "properties": { "osm_id": "1359848387", "code": 1050, "fclass": "locality", "population": 0, "name": "Əsrik" }, "geometry": { "type": "Point", "coordinates": [ 46.2179774, 40.0342541 ] } },
{ "type": "Feature", "properties": { "osm_id": "1359848388", "code": 1050, "fclass": "locality", "population": 0, "name": "Zərqulu" }, "geometry": { "type": "Point", "coordinates": [ 46.2114866, 40.0052785 ] } },
{ "type": "Feature", "properties": { "osm_id": "1359848390", "code": 1004, "fclass": "hamlet", "population": 0, "name": "İstisu" }, "geometry": { "type": "Point", "coordinates": [ 45.9655361, 39.9484051 ] } },
{ "type": "Feature", "properties": { "osm_id": "1359848391", "code": 1003, "fclass": "village", "population": 0, "name": "Qılınclı" }, "geometry": { "type": "Point", "coordinates": [ 46.1389909, 40.1633587 ] } },
{ "type": "Feature", "properties": { "osm_id": "1359848392", "code": 1004, "fclass": "hamlet", "population": 0, "name": "Bağlıpəyə" }, "geometry": { "type": "Point", "coordinates": [ 46.3161615, 40.1461494 ] } },
{ "type": "Feature", "properties": { "osm_id": "1359848394", "code": 1003, "fclass": "village", "population": 0, "name": "Çaykənd" }, "geometry": { "type": "Point", "coordinates": [ 46.0870475, 40.1490127 ] } },
{ "type": "Feature", "properties": { "osm_id": "1359848395", "code": 1050, "fclass": "locality", "population": 0, "name": "Günəşli" }, "geometry": { "type": "Point", "coordinates": [ 46.1891506, 40.1148399 ] } },
{ "type": "Feature", "properties": { "osm_id": "1359848396", "code": 1050, "fclass": "locality", "population": 0, "name": "Fətalılar" }, "geometry": { "type": "Point", "coordinates": [ 46.1555555, 40.0671653 ] } },
{ "type": "Feature", "properties": { "osm_id": "1359848397", "code": 1050, "fclass": "locality", "population": 0, "name": "Çəpli" }, "geometry": { "type": "Point", "coordinates": [ 46.1560688, 40.230493 ] } },
{ "type": "Feature", "properties": { "osm_id": "1359848398", "code": 1050, "fclass": "locality", "population": 0, "name": "Laçın" }, "geometry": { "type": "Point", "coordinates": [ 46.2536111, 40.1275 ] } },
{ "type": "Feature", "properties": { "osm_id": "1359848399", "code": 1050, "fclass": "locality", "population": 0, "name": "Sarıdaş" }, "geometry": { "type": "Point", "coordinates": [ 46.134295, 40.193905 ] } },
{ "type": "Feature", "properties": { "osm_id": "1359848400", "code": 1050, "fclass": "locality", "population": 0, "name": "Quzeyçirkin" }, "geometry": { "type": "Point", "coordinates": [ 46.1260919, 40.148111 ] } },
{ "type": "Feature", "properties": { "osm_id": "1359848401", "code": 1050, "fclass": "locality", "population": 0, "name": "Yuxarı Şurtan" }, "geometry": { "type": "Point", "coordinates": [ 45.9919837, 39.9872405 ] } },
{ "type": "Feature", "properties": { "osm_id": "1359848402", "code": 1050, "fclass": "locality", "population": 0, "name": "Çobangərəhməz" }, "geometry": { "type": "Point", "coordinates": [ 46.2333268, 40.0206355 ] } },
{ "type": "Feature", "properties": { "osm_id": "1359848403", "code": 1050, "fclass": "locality", "population": 0, "name": "Hopurlu" }, "geometry": { "type": "Point", "coordinates": [ 45.9775075, 40.034033 ] } },
{ "type": "Feature", "properties": { "osm_id": "1364922123", "code": 1003, "fclass": "village", "population": 351, "name": "Բարձրունի" }, "geometry": { "type": "Point", "coordinates": [ 45.4820456, 39.5198363 ] } },
{ "type": "Feature", "properties": { "osm_id": "1366793048", "code": 1004, "fclass": "hamlet", "population": 0, "name": "Mazımçay" }, "geometry": { "type": "Point", "coordinates": [ 46.3404233, 41.803576 ] } },
{ "type": "Feature", "properties": { "osm_id": "1369421093", "code": 1003, "fclass": "village", "population": 94, "name": "Ներքին Հանդ" }, "geometry": { "type": "Point", "coordinates": [ 46.522368, 39.0576947 ] } },
{ "type": "Feature", "properties": { "osm_id": "1370377931", "code": 1003, "fclass": "village", "population": 168, "name": "Ագարակ" }, "geometry": { "type": "Point", "coordinates": [ 46.5399695, 39.208345 ] } },
{ "type": "Feature", "properties": { "osm_id": "1377022149", "code": 1003, "fclass": "village", "population": 734, "name": "Խնածախ" }, "geometry": { "type": "Point", "coordinates": [ 46.3925148, 39.6055495 ] } },
{ "type": "Feature", "properties": { "osm_id": "1377022151", "code": 1003, "fclass": "village", "population": 167, "name": "Արավուս" }, "geometry": { "type": "Point", "coordinates": [ 46.4673256, 39.5670916 ] } },
{ "type": "Feature", "properties": { "osm_id": "1377022164", "code": 1003, "fclass": "village", "population": 1041, "name": "Կոռնիձոր" }, "geometry": { "type": "Point", "coordinates": [ 46.5305995, 39.5474151 ] } },
{ "type": "Feature", "properties": { "osm_id": "1377022165", "code": 1003, "fclass": "village", "population": 357, "name": "Խոզնավար" }, "geometry": { "type": "Point", "coordinates": [ 46.3563862, 39.6226302 ] } },
{ "type": "Feature", "properties": { "osm_id": "1377022166", "code": 1003, "fclass": "village", "population": 0, "name": "Ձորակ" }, "geometry": { "type": "Point", "coordinates": [ 46.4517118, 39.3381886 ] } },
{ "type": "Feature", "properties": { "osm_id": "1402104020", "code": 1003, "fclass": "village", "population": 479, "name": "Гарах" }, "geometry": { "type": "Point", "coordinates": [ 48.0475211, 41.4815059 ] } },
{ "type": "Feature", "properties": { "osm_id": "1434761991", "code": 1002, "fclass": "town", "population": 0, "name": "Ağdam" }, "geometry": { "type": "Point", "coordinates": [ 46.9300331, 39.9935455 ] } },
{ "type": "Feature", "properties": { "osm_id": "1464793157", "code": 1003, "fclass": "village", "population": 0, "name": "Aşağı Buzqov" }, "geometry": { "type": "Point", "coordinates": [ 45.4034071, 39.5167363 ] } },
{ "type": "Feature", "properties": { "osm_id": "1470794207", "code": 1003, "fclass": "village", "population": 0, "name": "Cəyirli" }, "geometry": { "type": "Point", "coordinates": [ 48.8647612, 40.5782247 ] } },
{ "type": "Feature", "properties": { "osm_id": "1470794240", "code": 1003, "fclass": "village", "population": 0, "name": "Çelov" }, "geometry": { "type": "Point", "coordinates": [ 48.8792795, 40.570359 ] } },
{ "type": "Feature", "properties": { "osm_id": "1470829639", "code": 1004, "fclass": "hamlet", "population": 1340, "name": "İlisu" }, "geometry": { "type": "Point", "coordinates": [ 47.0524106, 41.4672288 ] } },
{ "type": "Feature", "properties": { "osm_id": "1471832499", "code": 1003, "fclass": "village", "population": 7200, "name": "Nic" }, "geometry": { "type": "Point", "coordinates": [ 47.6639457, 40.9403859 ] } },
{ "type": "Feature", "properties": { "osm_id": "1493278656", "code": 1003, "fclass": "village", "population": 0, "name": "Privolnoye" }, "geometry": { "type": "Point", "coordinates": [ 48.533372, 39.1299584 ] } },
{ "type": "Feature", "properties": { "osm_id": "1498859125", "code": 1003, "fclass": "village", "population": 0, "name": "Xıdırlı" }, "geometry": { "type": "Point", "coordinates": [ 46.8901001, 40.0131611 ] } },
{ "type": "Feature", "properties": { "osm_id": "1498859127", "code": 1003, "fclass": "village", "population": 0, "name": "Kəngərli" }, "geometry": { "type": "Point", "coordinates": [ 46.9693412, 40.0313827 ] } },
{ "type": "Feature", "properties": { "osm_id": "1498859128", "code": 1003, "fclass": "village", "population": 0, "name": "Sarıcalı" }, "geometry": { "type": "Point", "coordinates": [ 46.9855417, 40.0033309 ] } },
{ "type": "Feature", "properties": { "osm_id": "1505246228", "code": 1004, "fclass": "hamlet", "population": 0, "name": "Çullu" }, "geometry": { "type": "Point", "coordinates": [ 46.8771559, 40.0469406 ] } },
{ "type": "Feature", "properties": { "osm_id": "1515544155", "code": 1050, "fclass": "locality", "population": 0, "name": "Şahbulaq" }, "geometry": { "type": "Point", "coordinates": [ 46.9031204, 40.0748335 ] } },
{ "type": "Feature", "properties": { "osm_id": "1516468316", "code": 1050, "fclass": "locality", "population": 0, "name": "Ətyeməzli" }, "geometry": { "type": "Point", "coordinates": [ 46.9417366, 40.0220333 ] } },
{ "type": "Feature", "properties": { "osm_id": "1516468321", "code": 1050, "fclass": "locality", "population": 0, "name": "Qiyaslı" }, "geometry": { "type": "Point", "coordinates": [ 46.9181158, 40.0191628 ] } },
{ "type": "Feature", "properties": { "osm_id": "1523254052", "code": 1050, "fclass": "locality", "population": 0, "name": "Eyvazxanbəyli" }, "geometry": { "type": "Point", "coordinates": [ 46.9481247, 40.0820092 ] } },
{ "type": "Feature", "properties": { "osm_id": "1523254058", "code": 1050, "fclass": "locality", "population": 0, "name": "Kosalar" }, "geometry": { "type": "Point", "coordinates": [ 46.9567292, 40.0882231 ] } },
{ "type": "Feature", "properties": { "osm_id": "1523254062", "code": 1050, "fclass": "locality", "population": 0, "name": "Abdınlı" }, "geometry": { "type": "Point", "coordinates": [ 46.9776076, 40.0907429 ] } },
{ "type": "Feature", "properties": { "osm_id": "1523254064", "code": 1050, "fclass": "locality", "population": 0, "name": "Qaraqaşlı" }, "geometry": { "type": "Point", "coordinates": [ 46.9949647, 40.0753285 ] } },
{ "type": "Feature", "properties": { "osm_id": "1523254065", "code": 1050, "fclass": "locality", "population": 0, "name": "Göytəpə" }, "geometry": { "type": "Point", "coordinates": [ 46.9719449, 40.0786583 ] } },
{ "type": "Feature", "properties": { "osm_id": "1523254066", "code": 1050, "fclass": "locality", "population": 0, "name": "Şişpapaqlar" }, "geometry": { "type": "Point", "coordinates": [ 46.9446085, 40.0713699 ] } },
{ "type": "Feature", "properties": { "osm_id": "1523254067", "code": 1050, "fclass": "locality", "population": 0, "name": "Shirvanli" }, "geometry": { "type": "Point", "coordinates": [ 46.9814699, 40.068611 ] } },
{ "type": "Feature", "properties": { "osm_id": "1641136757", "code": 1003, "fclass": "village", "population": 9700, "name": "Bilgəh" }, "geometry": { "type": "Point", "coordinates": [ 50.0409276, 40.5741603 ] } },
{ "type": "Feature", "properties": { "osm_id": "1641136759", "code": 1002, "fclass": "town", "population": 32100, "name": "Mərdəkan" }, "geometry": { "type": "Point", "coordinates": [ 50.1495477, 40.4935881 ] } },
{ "type": "Feature", "properties": { "osm_id": "1642800271", "code": 1010, "fclass": "suburb", "population": 64700, "name": "Bakıxanov" }, "geometry": { "type": "Point", "coordinates": [ 49.961604, 40.4228474 ] } },
{ "type": "Feature", "properties": { "osm_id": "1643880404", "code": 1003, "fclass": "village", "population": 1050, "name": "Qaravəlli" }, "geometry": { "type": "Point", "coordinates": [ 48.2141526, 39.911861 ] } },
{ "type": "Feature", "properties": { "osm_id": "1643881410", "code": 1003, "fclass": "village", "population": 0, "name": "Mirili" }, "geometry": { "type": "Point", "coordinates": [ 48.2334161, 39.9122534 ] } },
{ "type": "Feature", "properties": { "osm_id": "1643882817", "code": 1003, "fclass": "village", "population": 0, "name": "Mazreli" }, "geometry": { "type": "Point", "coordinates": [ 48.2482554, 39.9124343 ] } },
{ "type": "Feature", "properties": { "osm_id": "1643885207", "code": 1003, "fclass": "village", "population": 0, "name": "Naharli" }, "geometry": { "type": "Point", "coordinates": [ 48.2522696, 39.9099607 ] } },
{ "type": "Feature", "properties": { "osm_id": "1712540341", "code": 1050, "fclass": "locality", "population": 0, "name": "Milanlı" },